stop_id,stop_name,stop_lat,stop_lon,zone_id,location_type,parent_station
TRA_0900,基隆,25.13167,121.73862,TRA_0900,0,
TRA_0910,三坑,25.12305,121.74202,TRA_0910,0,
TRA_0920,八堵,25.10884,121.72901,TRA_0920,0,
TRA_0930,七堵,25.09294,121.71415,TRA_0930,0,
TRA_0940,百福,25.07795,121.69379,TRA_0940,0,
TRA_0950,五堵,25.07799,121.66758,TRA_0950,0,
TRA_0960,汐止,25.06784,121.66103,TRA_0960,0,
TRA_0970,汐科,25.06322,121.64966,TRA_0970,0,
TRA_0980,南港,25.05306,121.60706,TRA_0980,0,
TRA_0990,松山,25.04926,121.57904,TRA_0990,0,
TRA_1000,臺北,25.04775,121.51711,TRA_1000,0,
TRA_1001,臺北-環島,25.04811,121.51793,TRA_1001,0,
TRA_1010,萬華,25.03337,121.50063,TRA_1010,0,
TRA_1020,板橋,25.01432,121.46368,TRA_1020,0,
TRA_1030,浮洲,25.00419,121.44477,TRA_1030,0,
TRA_1040,樹林,24.99123,121.42442,TRA_1040,0,
TRA_1050,南樹林,24.98034,121.40891,TRA_1050,0,
TRA_1060,山佳,24.97273,121.39254,TRA_1060,0,
TRA_1070,鶯歌,24.95455,121.35517,TRA_1070,0,
TRA_1080,桃園,24.98908,121.31425,TRA_1080,0,
TRA_1090,內壢,24.97281,121.25826,TRA_1090,0,
TRA_1100,中壢,24.95319,121.22533,TRA_1100,0,
TRA_1110,埔心,24.9197,121.18321,TRA_1110,0,
TRA_1120,楊梅,24.91427,121.14637,TRA_1120,0,
TRA_1130,富岡,24.93444,121.08311,TRA_1130,0,
TRA_1140,新富,24.93444,121.08309,TRA_1140,0,
TRA_1150,北湖,24.92223,121.05573,TRA_1150,0,
TRA_1160,湖口,24.903,121.04385,TRA_1160,0,
TRA_1170,新豐,24.86928,120.99646,TRA_1170,0,
TRA_1180,竹北,24.83904,121.00921,TRA_1180,0,
TRA_1190,北新竹,24.80862,120.98377,TRA_1190,0,
TRA_1191,千甲,24.80657,121.0034,TRA_1191,0,
TRA_1192,新莊,24.78819,121.02186,TRA_1192,0,
TRA_1193,竹中,24.78144,121.03103,TRA_1193,0,
TRA_1194,六家,24.80766,121.03941,TRA_1194,0,
TRA_1201,上員,24.77776,121.05582,TRA_1201,0,
TRA_1202,榮華,24.74839,121.08319,TRA_1202,0,
TRA_1203,竹東,24.73823,121.09472,TRA_1203,0,
TRA_1204,橫山,24.72041,121.11772,TRA_1204,0,
TRA_1205,九讚頭,24.72062,121.13622,TRA_1205,0,
TRA_1206,合興,24.71667,121.15437,TRA_1206,0,
TRA_1207,富貴,24.7155,121.16743,TRA_1207,0,
TRA_1208,內灣,24.70535,121.18255,TRA_1208,0,
TRA_1210,新竹,24.8016,120.97159,TRA_1210,0,
TRA_1220,三姓橋,24.78731,120.92844,TRA_1220,0,
TRA_1230,香山,24.76311,120.91388,TRA_1230,0,
TRA_1240,崎頂,24.72291,120.87183,TRA_1240,0,
TRA_1250,竹南,24.68648,120.88079,TRA_1250,0,
TRA_2110,談文,24.65641,120.85825,TRA_2110,0,
TRA_2120,大山,24.64565,120.80376,TRA_2120,0,
TRA_2130,後龍,24.61621,120.78731,TRA_2130,0,
TRA_2140,龍港,24.61169,120.75812,TRA_2140,0,
TRA_2150,白沙屯,24.56481,120.70824,TRA_2150,0,
TRA_2160,新埔,24.54018,120.69518,TRA_2160,0,
TRA_2170,通霄,24.49141,120.67843,TRA_2170,0,
TRA_2180,苑裡,24.44344,120.65146,TRA_2180,0,
TRA_2190,日南,24.37825,120.6541,TRA_2190,0,
TRA_2200,大甲,24.34448,120.62702,TRA_2200,0,
TRA_2210,臺中港,24.30441,120.60231,TRA_2210,0,
TRA_2220,清水,24.26364,120.56918,TRA_2220,0,
TRA_2230,沙鹿,24.23702,120.55752,TRA_2230,0,
TRA_2240,龍井,24.19748,120.54335,TRA_2240,0,
TRA_2250,大肚,24.15441,120.54255,TRA_2250,0,
TRA_2260,追分,24.12051,120.57018,TRA_2260,0,
TRA_3140,造橋,24.64186,120.86721,TRA_3140,0,
TRA_3150,豐富,24.6043,120.82635,TRA_3150,0,
TRA_3160,苗栗,24.57001,120.82233,TRA_3160,0,
TRA_3170,南勢,24.52246,120.79154,TRA_3170,0,
TRA_3180,銅鑼,24.48656,120.78619,TRA_3180,0,
TRA_3190,三義,24.42066,120.77393,TRA_3190,0,
TRA_3210,泰安,24.33146,120.74181,TRA_3210,0,
TRA_3220,后里,24.30933,120.73288,TRA_3220,0,
TRA_3230,豐原,24.2542,120.7235,TRA_3230,0,
TRA_3240,栗林,24.2346,120.7106,TRA_3240,0,
TRA_3250,潭子,24.21255,120.70584,TRA_3250,0,
TRA_3260,頭家厝,24.19572,120.70398,TRA_3260,0,
TRA_3270,松竹,24.18035,120.70193,TRA_3270,0,
TRA_3280,太原,24.16449,120.69988,TRA_3280,0,
TRA_3290,精武,24.14929,120.69777,TRA_3290,0,
TRA_3300,臺中,24.13765,120.68505,TRA_3300,0,
TRA_3310,五權,24.12877,120.66654,TRA_3310,0,
TRA_3320,大慶,24.11911,120.64795,TRA_3320,0,
TRA_3330,烏日,24.10867,120.62244,TRA_3330,0,
TRA_3340,新烏日,24.10937,120.61421,TRA_3340,0,
TRA_3350,成功,24.11424,120.59021,TRA_3350,0,
TRA_3360,彰化,24.08177,120.53854,TRA_3360,0,
TRA_3370,花壇,24.02524,120.53731,TRA_3370,0,
TRA_3380,大村,23.99002,120.56062,TRA_3380,0,
TRA_3390,員林,23.95945,120.56971,TRA_3390,0,
TRA_3400,永靖,23.92808,120.57173,TRA_3400,0,
TRA_3410,社頭,23.89573,120.58077,TRA_3410,0,
TRA_3420,田中,23.85841,120.59157,TRA_3420,0,
TRA_3430,二水,23.81321,120.61805,TRA_3430,0,
TRA_3431,源泉,23.79845,120.64211,TRA_3431,0,
TRA_3432,濁水,23.83467,120.70467,TRA_3432,0,
TRA_3433,龍泉,23.92434,120.73805,TRA_3433,0,
TRA_3434,集集,23.82666,120.78485,TRA_3434,0,
TRA_3435,水里,23.81851,120.85331,TRA_3435,0,
TRA_3436,車埕,23.83263,120.86572,TRA_3436,0,
TRA_3450,林內,23.75967,120.61499,TRA_3450,0,
TRA_3460,石榴,23.73167,120.57998,TRA_3460,0,
TRA_3470,斗六,23.71184,120.54099,TRA_3470,0,
TRA_3480,斗南,23.67257,120.48089,TRA_3480,0,
TRA_3490,石龜,23.63951,120.47106,TRA_3490,0,
TRA_4050,大林,23.60089,120.45597,TRA_4050,0,
TRA_4060,民雄,23.55526,120.43179,TRA_4060,0,
TRA_4070,嘉北,23.49981,120.44846,TRA_4070,0,
TRA_4080,嘉義,23.47927,120.44061,TRA_4080,0,
TRA_4090,水上,23.43398,120.39971,TRA_4090,0,
TRA_4100,南靖,23.41344,120.38654,TRA_4100,0,
TRA_4110,後壁,23.36626,120.36058,TRA_4110,0,
TRA_4120,新營,23.30673,120.32307,TRA_4120,0,
TRA_4130,柳營,23.27762,120.32252,TRA_4130,0,
TRA_4140,林鳳營,23.24259,120.32107,TRA_4140,0,
TRA_4150,隆田,23.19271,120.31917,TRA_4150,0,
TRA_4160,拔林,23.17284,120.32125,TRA_4160,0,
TRA_4170,善化,23.13333,120.30653,TRA_4170,0,
TRA_4180,南科,23.10719,120.30196,TRA_4180,0,
TRA_4190,新市,23.06823,120.29004,TRA_4190,0,
TRA_4200,永康,23.03825,120.25347,TRA_4200,0,
TRA_4210,大橋,23.01923,120.22429,TRA_4210,0,
TRA_4220,臺南,22.99681,120.21295,TRA_4220,0,
TRA_4250,保安,22.93296,120.23158,TRA_4250,0,
TRA_4260,仁德,22.92354,120.24054,TRA_4260,0,
TRA_4270,中洲,22.90446,120.25284,TRA_4270,0,
TRA_4271,長榮大學,22.90729,120.27263,TRA_4271,0,
TRA_4272,沙崙,22.92407,120.28622,TRA_4272,0,
TRA_4290,大湖,22.87821,120.25384,TRA_4290,0,
TRA_4300,路竹,22.85404,120.26619,TRA_4300,0,
TRA_4310,岡山,22.79236,120.30004,TRA_4310,0,
TRA_4320,橋頭,22.76098,120.31011,TRA_4320,0,
TRA_4330,楠梓,22.72696,120.32425,TRA_4330,0,
TRA_4340,新左營,22.68754,120.30678,TRA_4340,0,
TRA_4350,左營,22.67445,120.29401,TRA_4350,0,
TRA_4360,內惟,22.66589,120.287,TRA_4360,0,
TRA_4370,美術館,22.65195,120.28155,TRA_4370,0,
TRA_4380,鼓山,22.6418,120.28071,TRA_4380,0,
TRA_4390,三塊厝,22.63931,120.29414,TRA_4390,0,
TRA_4400,高雄,22.63965,120.30264,TRA_4400,0,
TRA_4410,民族,22.63879,120.31494,TRA_4410,0,
TRA_4420,科工館,22.63709,120.32603,TRA_4420,0,
TRA_4430,正義,22.63425,120.34245,TRA_4430,0,
TRA_4440,鳳山,22.6315,120.35712,TRA_4440,0,
TRA_4450,後庄,22.64016,120.39131,TRA_4450,0,
TRA_4460,九曲堂,22.65642,120.42101,TRA_4460,0,
TRA_4470,六塊厝,22.66597,120.46497,TRA_4470,0,
TRA_5000,屏東,22.66895,120.48608,TRA_5000,0,
TRA_5010,歸來,22.65218,120.50283,TRA_5010,0,
TRA_5020,麟洛,22.63481,120.51432,TRA_5020,0,
TRA_5030,西勢,22.61634,120.5265,TRA_5030,0,
TRA_5040,竹田,22.58648,120.54009,TRA_5040,0,
TRA_5050,潮州,22.55013,120.53613,TRA_5050,0,
TRA_5060,崁頂,22.51311,120.51481,TRA_5060,0,
TRA_5070,南州,22.49207,120.51174,TRA_5070,0,
TRA_5080,鎮安,22.45794,120.51151,TRA_5080,0,
TRA_5090,林邊,22.4313,120.51529,TRA_5090,0,
TRA_5100,佳冬,22.41409,120.54774,TRA_5100,0,
TRA_5110,東海,22.39897,120.57236,TRA_5110,0,
TRA_5120,枋寮,22.36802,120.5951,TRA_5120,0,
TRA_5130,加祿,22.33085,120.62445,TRA_5130,0,
TRA_5140,內獅,22.30615,120.64322,TRA_5140,0,
TRA_5160,枋山,22.26677,120.65968,TRA_5160,0,
TRA_5170,枋野,22.28091,120.71709,TRA_5170,0,
TRA_5190,大武,22.36523,120.90081,TRA_5190,0,
TRA_5200,瀧溪,22.46102,120.94176,TRA_5200,0,
TRA_5210,金崙,22.53161,120.96721,TRA_5210,0,
TRA_5220,太麻里,22.61904,121.005,TRA_5220,0,
TRA_5230,知本,22.71022,121.06068,TRA_5230,0,
TRA_5240,康樂,22.76459,121.09358,TRA_5240,0,
TRA_5998,南方小站,22.52755,120.53658,TRA_5998,0,
TRA_5999,潮州基地,22.52231,120.52642,TRA_5999,0,
TRA_6000,臺東,22.79376,121.12311,TRA_6000,0,
TRA_6010,山里,22.86194,121.13778,TRA_6010,0,
TRA_6020,鹿野,22.91249,121.137,TRA_6020,0,
TRA_6030,瑞源,22.956,121.15896,TRA_6030,0,
TRA_6040,瑞和,22.98111,121.15584,TRA_6040,0,
TRA_6050,關山,23.04564,121.16441,TRA_6050,0,
TRA_6060,海端,23.10292,121.17676,TRA_6060,0,
TRA_6070,池上,23.12605,121.21956,TRA_6070,0,
TRA_6080,富里,23.17924,121.24864,TRA_6080,0,
TRA_6090,東竹,23.22605,121.27842,TRA_6090,0,
TRA_6100,東里,23.27234,121.30418,TRA_6100,0,
TRA_6110,玉里,23.33155,121.31172,TRA_6110,0,
TRA_6120,三民,23.42458,121.34539,TRA_6120,0,
TRA_6130,瑞穗,23.49775,121.37657,TRA_6130,0,
TRA_6140,富源,23.58031,121.38008,TRA_6140,0,
TRA_6150,大富,23.60571,121.38963,TRA_6150,0,
TRA_6160,光復,23.66631,121.42117,TRA_6160,0,
TRA_6170,萬榮,23.71199,121.41907,TRA_6170,0,
TRA_6180,鳳林,23.74636,121.44711,TRA_6180,0,
TRA_6190,南平,23.78231,121.45824,TRA_6190,0,
TRA_6200,林榮新光,23.80225,121.46205,TRA_6200,0,
TRA_6210,豐田,23.84842,121.49618,TRA_6210,0,
TRA_6220,壽豐,23.86901,121.51064,TRA_6220,0,
TRA_6230,平和,23.88279,121.52045,TRA_6230,0,
TRA_6240,志學,23.90769,121.5295,TRA_6240,0,
TRA_6250,吉安,23.96823,121.58266,TRA_6250,0,
TRA_7000,花蓮,23.99325,121.6008,TRA_7000,0,
TRA_7010,北埔,24.03253,121.60166,TRA_7010,0,
TRA_7020,景美,24.09048,121.61125,TRA_7020,0,
TRA_7030,新城,24.12756,121.64086,TRA_7030,0,
TRA_7040,崇德,24.17199,121.65536,TRA_7040,0,
TRA_7050,和仁,24.24219,121.71192,TRA_7050,0,
TRA_7060,和平,24.29848,121.75336,TRA_7060,0,
TRA_7070,漢本,24.33543,121.76835,TRA_7070,0,
TRA_7080,武塔,24.44879,121.77601,TRA_7080,0,
TRA_7090,南澳,24.46342,121.80103,TRA_7090,0,
TRA_7100,東澳,24.51827,121.83072,TRA_7100,0,
TRA_7110,永樂,24.56843,121.84458,TRA_7110,0,
TRA_7120,蘇澳,24.59516,121.85143,TRA_7120,0,
TRA_7130,蘇澳新,24.60852,121.82735,TRA_7130,0,
TRA_7140,新馬,24.61564,121.8229,TRA_7140,0,
TRA_7150,冬山,24.63633,121.79211,TRA_7150,0,
TRA_7160,羅東,24.67791,121.77464,TRA_7160,0,
TRA_7170,中里,24.69415,121.77526,TRA_7170,0,
TRA_7180,二結,24.70528,121.77409,TRA_7180,0,
TRA_7190,宜蘭,24.75443,121.75839,TRA_7190,0,
TRA_7200,四城,24.78681,121.76271,TRA_7200,0,
TRA_7210,礁溪,24.82703,121.77535,TRA_7210,0,
TRA_7220,頂埔,24.8439,121.80913,TRA_7220,0,
TRA_7230,頭城,24.88375,121.80913,TRA_7230,0,
TRA_7240,外澳,24.88375,121.84572,TRA_7240,0,
TRA_7250,龜山,24.90486,121.86891,TRA_7250,0,
TRA_7260,大溪,24.93836,121.88983,TRA_7260,0,
TRA_7270,大里,24.96677,121.92253,TRA_7270,0,
TRA_7280,石城,24.97832,121.94507,TRA_7280,0,
TRA_7290,福隆,25.01595,121.94471,TRA_7290,0,
TRA_7300,貢寮,25.02197,121.90879,TRA_7300,0,
TRA_7310,雙溪,25.03851,121.86654,TRA_7310,0,
TRA_7320,牡丹,25.05871,121.85197,TRA_7320,0,
TRA_7330,三貂嶺,25.06556,121.82263,TRA_7330,0,
TRA_7331,大華,25.04998,121.79732,TRA_7331,0,
TRA_7332,十分,25.04111,121.77514,TRA_7332,0,
TRA_7333,望古,25.03445,121.76349,TRA_7333,0,
TRA_7334,嶺腳,25.03021,121.74794,TRA_7334,0,
TRA_7335,平溪,25.02571,121.74019,TRA_7335,0,
TRA_7336,菁桐,25.02391,121.72391,TRA_7336,0,
TRA_7350,猴硐,25.08702,121.82743,TRA_7350,0,
TRA_7360,瑞芳,25.10898,121.80617,TRA_7360,0,
TRA_7361,海科館,25.13754,121.79997,TRA_7361,0,
TRA_7362,八斗子,25.13545,121.80261,TRA_7362,0,
TRA_7380,四腳亭,25.10281,121.76195,TRA_7380,0,
TRA_7390,暖暖,25.10284,121.74027,TRA_7390,0,
