stop_id,stop_name,stop_lat,stop_lon,zone_id,location_type,parent_station
AirLine_TSA,臺北松山國際機場,25.0636769655,121.551880574,AirLine_TSA,0,
THB129964,昌吉重慶路口,25.06567,121.51382,THB129964,0,
THB129965,民族重慶路口,25.068401,121.513756,THB129965,0,
THB129966,酒泉重慶路口,25.07173,121.51381,THB129966,0,
THB130007,民族重慶路口,25.0689,121.51375,THB130007,0,
THB130008,昌吉重慶路口,25.066115,121.513671,THB130008,0,
THB130010,涼州重慶路口,25.061038,121.513517,THB130010,0,
THB130061,捷運大橋頭站,25.06254,121.51357,THB130061,0,
THB130179,菜寮(重新路),25.05728,121.48808,THB130179,0,
THB133980,圓環(南京),25.053645,121.51573,THB133980,0,
THB139122,捷運六張犁站(基隆路),25.02405,121.55183,THB139122,0,
THB139124,捷運萬隆站,25.001677,121.538971,THB139124,0,
THB139187,捷運萬隆站,25.0013,121.53933,THB139187,0,
THB139189,捷運六張犁站(基隆路),25.023712,121.552041,THB139189,0,
THB140029,民族重慶路口,25.068753,121.513625,THB140029,0,
THB140031,捷運大橋頭站,25.063339,121.513621,THB140031,0,
THB140032,涼州重慶路口,25.061115,121.513585,THB140032,0,
THB140041,民族重慶路口,25.068491,121.513828,THB140041,0,
THB140607,啟聰學校,25.074485,121.51378,THB140607,0,
THB142836,重慶站,25.073467,121.513915,THB142836,0,
THB143882,板橋客運站,25.01551,121.46511,THB143882,0,
THB152884,公館,25.012108,121.537981,THB152884,0,
THB152885,福和橋(林森路),25.0038,121.52342,THB152885,0,
THB152912,福和橋(永元路),25.0029,121.52283,THB152912,0,
THB152913,公館,25.01221,121.53863,THB152913,0,
THB162550,涼州重慶路口,25.06054,121.51353,THB162550,0,
THB162954,民族重慶路口,25.068901,121.513751,THB162954,0,
THB163094,捷運大橋頭站,25.063439,121.51358,THB163094,0,
THB163957,時報廣場,25.068589,121.58313,THB163957,0,
THB166241,涼州重慶路口,25.060927,121.513545,THB166241,0,
THB167227,民生重慶路口,25.057167,121.513774,THB167227,0,
THB168092,民權敦化路口,25.062164,121.548229,THB168092,0,
THB168094,民權龍江路口,25.06261,121.539613,THB168094,0,
THB168095,民權建國路口,25.062374,121.537616,THB168095,0,
THB168096,民權松江路口,25.0625301574368,121.533598984681,THB168096,0,
THB168097,民權吉林路口,25.062614,121.529261,THB168097,0,
THB168098,捷運中山國小站,25.06272,121.52608,THB168098,0,
THB168099,民權中山路口,25.062818,121.523044,THB168099,0,
THB168101,昌吉重慶路口,25.065561,121.51373,THB168101,0,
THB168102,民族重慶路口,25.06841,121.513786,THB168102,0,
THB168103,酒泉重慶路口,25.07181,121.513826,THB168103,0,
THB168129,啟聰學校,25.07456,121.51378,THB168129,0,
THB168132,民權中山路口,25.06266,121.522241,THB168132,0,
THB168133,捷運中山國小站,25.06264,121.52531,THB168133,0,
THB168134,民權吉林路口,25.0624,121.529801,THB168134,0,
THB168135,民權松江路口,25.06247,121.532721,THB168135,0,
THB168136,民權建國路口,25.06233,121.536401,THB168136,0,
THB168137,民權龍江路口,25.06228,121.540301,THB168137,0,
THB168139,民權敦化路口,25.06202613,121.5482433,THB168139,0,
THB168193,松山機場,25.06343,121.552099,THB168193,0,
THB168194,捷運忠孝敦化站,25.042219,121.54879,THB168194,0,
THB168217,捷運忠孝敦化站,25.04313,121.549164,THB168217,0,
THB181857,營盤口,25.03142,121.43043,THB181857,0,
THB181861,丹鳳國小,25.02361,121.41495,THB181861,0,
THB181913,丹鳳國小,25.02345,121.41454,THB181913,0,
THB181956,營盤口,25.03098,121.42949,THB181956,0,
THB182110,啟聰學校,25.074899,121.514032,THB182110,0,
THB184657,興安華城,25.05696,121.54402,THB184657,0,
THB184658,捷運南京復興站,25.053529,121.543753,THB184658,0,
THB184659,復興南路,25.04713,121.54372,THB184659,0,
THB184660,捷運忠孝復興站,25.041821,121.542538,THB184660,0,
THB184662,長安東路二段,25.049541,121.533216,THB184662,0,
THB184689,松江新村,25.061432,121.533301,THB184689,0,
THB188114,民生松江路口,25.05779,121.53458,THB188114,0,
THB188119,臺北科技大學(忠孝),25.042132,121.534584,THB188119,0,
THB188121,松江長春路口,25.055458,121.533232,THB188121,0,
THB188130,成淵高中,25.061178,121.518159,THB188130,0,
THB189257,三重站,25.07028,121.491734,THB189257,0,
THB189264,三重站,25.070694,121.492258,THB189264,0,
THB208919,成淵高中,25.060979,121.518341,THB208919,0,
THB211812,松壽路口,25.03600562,121.5666535,THB211812,0,
THB212946,靜修女中,25.05711,121.51506,THB212946,0,
THB213948,昌吉重慶路口,25.066121,121.513671,THB213948,0,
THB214808,捷運大橋頭站,25.062541,121.513569,THB214808,0,
THB214832,昌吉重慶路口,25.066021,121.513652,THB214832,0,
THB214833,捷運大橋頭站,25.06344,121.51358,THB214833,0,
THB214834,涼州重慶路口,25.06119,121.5136,THB214834,0,
THB220953,港墘路,25.0759,121.574605,THB220953,0,
THB220987,捷運迴龍站,25.021663,121.411386,THB220987,0,
THB221057,金陵女中,25.04295539,121.4667502,THB221057,0,
THB221065,中興街口,25.0449,121.46844,THB221065,0,
THB221228,鄉雲里,25.004469,121.459913,THB221228,0,
THB221258,板橋外站,25.01022,121.46179,THB221258,0,
THB221547,捷運新莊站(新莊郵局),25.035739,121.449934,THB221547,0,
THB221659,捷運新莊站(新莊郵局),25.035459,121.449939,THB221659,0,
THB237066,臺北轉運站,25.04887,121.51761,THB237066,0,
THB241769,市政府(松壽),25.035999,121.564607,THB241769,0,
THB247056,老師里,25.07212,121.51142,THB247056,0,
THB247104,行天宮,25.063364,121.533067,THB247104,0,
THB247105,臺北大學(臺北校區),25.05766,121.54283,THB247105,0,
THB247146,臺北大學(臺北校區),25.05793,121.54174,THB247146,0,
THB247147,行天宮,25.063401,121.533381,THB247147,0,
THB251509,保元宮,25.03823,121.45958,THB251509,0,
THB251510,大眾廟,25.03719,121.45738,THB251510,0,
THB251678,三洋,25.03012,121.42674,THB251678,0,
THB251831,土地公廟,25.0542827200925,121.596133656643,THB251831,0,
THB252056,土地公廟,25.05448,121.596033,THB252056,0,
THB252063,士林官邸(中正),25.09657,121.53159,THB252063,0,
THB252155,士林區行政中心(基河),25.09263,121.52048,THB252155,0,
THB252257,西新里(新新公園),25.053223,121.589714,THB252257,0,
THB252477,西新里(新新公園),25.05351,121.590002,THB252477,0,
THB252594,仁寶大樓,25.07945,121.56848,THB252594,0,
THB253341,三洋,25.030268,121.426655,THB253341,0,
THB253393,士林區行政中心(基河),25.092938,121.520414,THB253393,0,
THB253502,玉成國小,25.05437,121.59251,THB253502,0,
THB253558,汐止,25.06907,121.66155,THB253558,0,
THB253559,汐科站南站,25.06303,121.64701,THB253559,0,
THB253592,台北君悅酒店,25.03567,121.56292,THB253592,0,
THB253681,汐止國中,25.0670276,121.6570504,THB253681,0,
THB253683,汐止國小,25.0663,121.65495,THB253683,0,
THB253686,福二街口,25.081804,121.696852,THB253686,0,
THB253687,福二街口,25.08192,121.69671,THB253687,0,
THB253843,八德東寧路口,25.048834,121.564607,THB253843,0,
THB253869,光復路口,25.04801,121.55684,THB253869,0,
THB253947,八德東寧路口,25.048889,121.563889,THB253947,0,
THB254038,保長坑,25.071295,121.679147,THB254038,0,
THB254049,南港,25.055443,121.613561,THB254049,0,
THB254112,板橋客運站,25.015449,121.465259,THB254112,0,
THB254113,松山農會,25.049918,121.57354,THB254113,0,
THB254115,武功國小(羅斯福),25.0029,121.53884,THB254115,0,
THB254116,武功國小(羅斯福),25.00312,121.538566,THB254116,0,
THB254154,南港輪胎,25.053503,121.600452,THB254154,0,
THB254155,南港輪胎,25.05334,121.60052,THB254155,0,
THB254194,美仁里,25.048075,121.554732,THB254194,0,
THB254217,師大分部,25.0078,121.53852,THB254217,0,
THB254273,堵南里(百福車站),25.07779,121.69227,THB254273,0,
THB254275,崇義高中(五堵車站),25.07747,121.6679,THB254275,0,
THB254306,昊天嶺,25.06202,121.64446,THB254306,0,
THB254307,昊天嶺,25.062111,121.64547,THB254307,0,
THB254331,板橋客運站,25.01551,121.46511,THB254331,0,
THB254333,松山車站(八德),25.04997,121.57678,THB254333,0,
THB254334,松山車站(八德),25.050172,121.577266,THB254334,0,
THB254335,松山磚廠,25.052662,121.584935,THB254335,0,
THB254342,治磐新村,25.08294,121.56378,THB254342,0,
THB254343,盲人重建院,25.034116,121.443389,THB254343,0,
THB254381,南港,25.05515,121.6136,THB254381,0,
THB254386,南港路三段,25.052899,121.587871,THB254386,0,
THB254435,治磐新村,25.08306,121.5641,THB254435,0,
THB254463,保安里,25.07315,121.67515,THB254463,0,
THB254464,保長坑,25.071031,121.68013,THB254464,0,
THB254583,崇義高中(五堵車站),25.07695,121.66757,THB254583,0,
THB254604,捷運南港展覽館站(南港路),25.055191,121.617305,THB254604,0,
THB254678,海山里,25.034451,121.444866,THB254678,0,
THB254740,美仁里,25.04826,121.55374,THB254740,0,
THB254782,泰北中學,25.097714,121.534022,THB254782,0,
THB254829,監理站,25.08817,121.69764,THB254829,0,
THB254830,堵南里(百福車站),25.078138,121.691827,THB254830,0,
THB254899,景美里,25.17201879,121.6843629,THB254899,0,
THB254931,圓山飯店,25.076542,121.52576,THB254931,0,
THB254962,捷運忠孝復興站,25.040819,121.543552,THB254962,0,
THB255379,福華飯店,25.03731,121.54354,THB255379,0,
THB255406,捷運劍南路站,25.084437,121.554872,THB255406,0,
THB255479,晶華酒店,25.05413,121.52283,THB255479,0,
THB255517,瑞光路,25.07473,121.57751,THB255517,0,
THB255564,福林國小,25.09593,121.52898,THB255564,0,
THB255571,聚盛里,25.05884,121.52554,THB255571,0,
THB255581,瑞光港墘路口,25.078406,121.570426,THB255581,0,
THB255582,瑞光港墘路口,25.077295,121.573112,THB255582,0,
THB255617,台肥新村,25.053716,121.603167,THB255617,0,
THB255618,臺視,25.048272,121.549744,THB255618,0,
THB255739,樟樹灣,25.05939,121.63822,THB255739,0,
THB255749,橫科,25.054876,121.621428,THB255749,0,
THB255750,橫科,25.05511,121.62115,THB255750,0,
THB255928,光復路口,25.0481687713645,121.556821466484,THB255928,0,
THB255979,亞太科技園區,25.07311,121.68354,THB255979,0,
THB256064,橫科,25.05487,121.62139,THB256064,0,
THB256110,聯合報總部,25.06098,121.64197,THB256110,0,
THB256280,汐止國小,25.066362,121.654649,THB256280,0,
THB256281,百福國中,25.08293,121.69914,THB256281,0,
THB256438,臺安醫院,25.0481049,121.5466398,THB256438,0,
THB256469,玉成里,25.050764,121.580689,THB256469,0,
THB256470,玉成國小,25.05408,121.59183,THB256470,0,
THB256552,捷運中山國中站,25.06133,121.54398,THB256552,0,
THB256575,中崙,25.0472969,121.5429922,THB256575,0,
THB256602,仁寶大樓,25.07914,121.5688,THB256602,0,
THB256638,汐科站北站,25.06409,121.65222,THB256638,0,
THB256639,汐科站北站,25.065048,121.653199,THB256639,0,
THB256678,台北君悅酒店,25.03531,121.56335,THB256678,0,
THB256793,南港展覽館,25.05534,121.61565,THB256793,0,
THB256826,捷運科技大樓站,25.02611,121.54368,THB256826,0,
THB256831,建國錦州街口,25.06065,121.53674,THB256831,0,
THB256890,國賓飯店,25.05615,121.52292,THB256890,0,
THB256895,基隆市界(明德三路),25.07543,121.68542,THB256895,0,
THB256993,捷運科技大樓站,25.026839,121.543293,THB256993,0,
THB257072,萬華車站,25.03289,121.50085,THB257072,0,
THB257126,臺視,25.0481,121.55117,THB257126,0,
THB257128,遠東科技中心,25.06394,121.65061,THB257128,0,
THB257430,基隆市界(基金三路),25.16196,121.68919,THB257430,0,
THB257493,酒泉重慶路口,25.07336,121.51373,THB257493,0,
THB257528,捷運公館站,25.01309,121.53612,THB257528,0,
THB257531,捷運南港展覽館站(南港路),25.054829,121.61818,THB257531,0,
THB257756,樟樹灣,25.05912,121.63838,THB257756,0,
THB257896,汐科站南站,25.062864,121.647659,THB257896,0,
THB257915,行天宮,25.064417,121.533082,THB257915,0,
THB258004,松山農會,25.050057,121.573751,THB258004,0,
THB258020,長安里,25.07605,121.67318,THB258020,0,
THB258036,保安里,25.073545,121.675117,THB258036,0,
THB258163,基隆市界(明德三路),25.075655,121.685368,THB258163,0,
THB258371,仁愛新村,25.00004,121.45829,THB258371,0,
THB258574,瑞光路,25.07479,121.57772,THB258574,0,
THB258644,台泥大樓(馬偕醫院),25.06064,121.52285,THB258644,0,
THB258645,台肥新村,25.05389,121.603639,THB258645,0,
THB258650,遠東國際飯店,25.02656,121.54927,THB258650,0,
THB258735,藍天麗地社區,25.15457,121.69672,THB258735,0,
THB258765,汐止公園,25.067807,121.659969,THB258765,0,
THB258865,松山磚廠,25.052518,121.58517,THB258865,0,
THB258892,長安里,25.07631,121.67318,THB258892,0,
THB258916,南港路三段,25.053124,121.58788,THB258916,0,
THB258986,泰北中學,25.09714,121.53329,THB258986,0,
THB259030,國賓飯店,25.05645,121.52263,THB259030,0,
THB259033,基隆路口,25.04938,121.56835,THB259033,0,
THB259053,捷運南港展覽館站(南港路),25.055191,121.617315,THB259053,0,
THB259193,亞太科技園區,25.07268,121.68296,THB259193,0,
THB259231,萬華車站,25.03306,121.500164,THB259231,0,
THB259302,摩天鎮,25.07484,121.68331,THB259302,0,
THB259348,聯合報總部,25.060885,121.642235,THB259348,0,
THB259413,鄉雲里,25.005072,121.459941,THB259413,0,
THB259750,進安公園,25.04608,121.53738,THB259750,0,
THB260187,八德東寧路口,25.048843,121.564582,THB260187,0,
THB260653,捷運忠孝復興站,25.041808,121.542706,THB260653,0,
THB260737,捷運忠孝新生站,25.04202724,121.5329692,THB260737,0,
THB260743,捷運劍潭站(北藝中心),25.08524,121.52494,THB260743,0,
THB260934,臺北市區監理所,25.04857,121.56061,THB260934,0,
THB261573,玉成國小,25.054328,121.592529,THB261573,0,
THB261599,石潭公園(成功),25.06138,121.59124,THB261599,0,
THB262760,石潭公園(成功),25.06095,121.59105,THB262760,0,
THB264656,世貿中心(基隆路),25.033618,121.559802,THB264656,0,
THB266034,庫倫街口,25.06995,121.51825,THB266034,0,
THB266193,大同國小,25.064979,121.518177,THB266193,0,
THB266213,長元西街口,25.065106,121.49698,THB266213,0,
THB266306,高公局,25.06654,121.424451,THB266306,0,
THB266362,板橋客運站,25.01551,121.46511,THB266362,0,
THB266554,正義郵局,25.04159,121.53843,THB266554,0,
THB266555,捷運行天宮站(松江路),25.057668,121.533229,THB266555,0,
THB266558,民族重慶路口,25.068341,121.513762,THB266558,0,
THB266596,捷運菜寮站,25.05935,121.49081,THB266596,0,
THB266635,中華路北站,25.045663,121.509248,THB266635,0,
THB266676,民生重慶路口,25.0573,121.51365,THB266676,0,
THB266681,民權龍江路口,25.06261,121.539614,THB266681,0,
THB266692,基隆長興街口,25.01738,121.54503,THB266692,0,
THB266695,西湖圖書館(湖光教會),25.07889,121.57852,THB266695,0,
THB266716,士林國中,25.09481,121.52289,THB266716,0,
THB266718,大同路口,25.061378,121.494996,THB266718,0,
THB266735,新北大道路口,25.06298,121.4869,THB266735,0,
THB266744,中興中學,25.048408,121.542906,THB266744,0,
THB266759,文湖國小,25.08438,121.56152,THB266759,0,
THB266765,世貿中心(基隆路),25.03355,121.56011,THB266765,0,
THB266814,三安里,25.06888,121.4958,THB266814,0,
THB266819,三興國小(臨江街觀光夜市),25.02856,121.55708,THB266819,0,
THB266823,士林官邸(中正),25.09637,121.53146,THB266823,0,
THB266868,內湖高中,25.0786,121.58758,THB266868,0,
THB266869,捷運六張犁站(基隆路),25.023713,121.552041,THB266869,0,
THB266903,民權松江路口,25.06253,121.5336,THB266903,0,
THB266907,玉成里,25.050906,121.580783,THB266907,0,
THB267018,光華商場,25.044621,121.533089,THB267018,0,
THB267035,三重運動場,25.06233,121.49203,THB267035,0,
THB267036,三重運動場,25.06283,121.4904,THB267036,0,
THB267040,三興國小(臨江街觀光夜市),25.028238,121.556626,THB267040,0,
THB267069,中影文化城,25.09711,121.54467,THB267069,0,
THB267087,公館,25.012179,121.538136,THB267087,0,
THB267095,文湖國小,25.08415,121.56154,THB267095,0,
THB267123,民權建國路口,25.06248001,121.5375652,THB267123,0,
THB267124,捷運大橋頭站,25.062653,121.513686,THB267124,0,
THB267128,石牌,25.109448,121.51253,THB267128,0,
THB267159,士林國中,25.09449,121.52279,THB267159,0,
THB267175,中山藝術公園,25.060499,121.49236,THB267175,0,
THB267193,仁愛新生路口,25.03789,121.53288,THB267193,0,
THB267196,內湖高中,25.07899,121.58824,THB267196,0,
THB267231,民權復興路口,25.06213,121.5448,THB267231,0,
THB267250,行天宮,25.063659,121.533331,THB267250,0,
THB267357,捷運大橋頭站,25.062607,121.513528,THB267357,0,
THB267358,捷運六張犁站(基隆路),25.023433,121.55138,THB267358,0,
THB267412,三重站,25.07009,121.491859,THB267412,0,
THB267550,捷運文德站(碧湖公園),25.0787011697845,121.58440762736,THB267550,0,
THB267590,基隆長興街口,25.017545,121.544517,THB267590,0,
THB267593,西湖國中,25.08519,121.56544,THB267593,0,
THB267595,吳興街口,25.0316,121.55855,THB267595,0,
THB267597,宏國新村,25.11551,121.52039,THB267597,0,
THB267604,和平高中,25.020172,121.547669,THB267604,0,
THB267650,大智街口(三重),25.07028,121.491734,THB267650,0,
THB267653,時報大樓,25.032942,121.496956,THB267653,0,
THB267681,捷運文德站(碧湖公園),25.0784,121.5844,THB267681,0,
THB267696,西湖國中,25.08566,121.56561,THB267696,0,
THB267699,吳興街口,25.03154,121.55885,THB267699,0,
THB267712,昌吉重慶路口,25.065655,121.513749,THB267712,0,
THB267713,明德國中,25.10729,121.51771,THB267713,0,
THB267714,東方科學園區,25.0614,121.64917,THB267714,0,
THB267721,松山高中(基隆路),25.044401,121.566191,THB267721,0,
THB267752,故宮路口,25.09814,121.54607,THB267752,0,
THB267759,重陽站,25.070244,121.491687,THB267759,0,
THB267760,重陽站,25.071294,121.492723,THB267760,0,
THB267811,西湖圖書館(湖光教會),25.0786,121.57853,THB267811,0,
THB267830,明德國中,25.10712,121.51777,THB267830,0,
THB267851,長安松江路口,25.048227,121.53306,THB267851,0,
THB267852,長春松江路口,25.054519,121.533172,THB267852,0,
THB267856,捷運松江南京站,25.051587,121.533134,THB267856,0,
THB267864,奎山國中,25.112694,121.521917,THB267864,0,
THB267877,修德國小,25.06701,121.48921,THB267877,0,
THB267898,振興醫院,25.1176,121.52177,THB267898,0,
THB267909,捷運南港展覽館站(南港路),25.05519,121.61749,THB267909,0,
THB267912,捷運劍南路站,25.084617,121.555924,THB267912,0,
THB267918,和平高中,25.0197,121.54752,THB267918,0,
THB267966,奎山國中,25.11239,121.52168,THB267966,0,
THB267986,師大分部,25.00835,121.53791,THB267986,0,
THB267987,庫倫街口,25.06993,121.518242,THB267987,0,
THB268002,振興醫院,25.1181,121.52212,THB268002,0,
THB268006,國防醫學中心,25.07109,121.59011,THB268006,0,
THB268007,國防醫學中心,25.07101,121.58989,THB268007,0,
THB268015,捷運忠孝敦化站,25.04167,121.55028,THB268015,0,
THB268018,捷運劍南路站,25.08528,121.55457,THB268018,0,
THB268085,雙溪公園,25.09802,121.53829,THB268085,0,
THB268091,交通部觀光署,25.041611,121.555916,THB268091,0,
THB268093,捷運西門站,25.04243,121.50822,THB268093,0,
THB268131,菜寮(重新路),25.057355,121.487816,THB268131,0,
THB268167,臺大,25.017861,121.533649,THB268167,0,
THB268179,龍門路口,25.07025,121.49511,THB268179,0,
THB268180,龍門路口,25.07067,121.49486,THB268180,0,
THB268190,麗山新村,25.08519,121.57427,THB268190,0,
THB268232,小南門,25.03777,121.50685,THB268232,0,
THB268249,方濟中學,25.0769,121.59025,THB268249,0,
THB268250,方濟中學,25.0771,121.58995,THB268250,0,
THB268291,宏國新村,25.11614,121.52013,THB268291,0,
THB268299,忠孝路口,25.07109,121.492438,THB268299,0,
THB268304,昌吉重慶路口,25.065936,121.513636,THB268304,0,
THB268331,新湖一路口,25.06068,121.5788,THB268331,0,
THB268346,福林國小,25.09625,121.52966,THB268346,0,
THB268360,遠東世界中心,25.06086,121.64592,THB268360,0,
THB268362,德明財經科技大學(環山),25.08631,121.56826,THB268362,0,
THB268397,麗山高中(港墘),25.08288,121.57833,THB268397,0,
THB268398,麗山高中(港墘),25.08368,121.57804,THB268398,0,
THB268399,麗山新村,25.08509,121.5741,THB268399,0,
THB268422,上灣仔,25.066899,121.590733,THB268422,0,
THB268471,潭美公園,25.05917,121.58578,THB268471,0,
THB268487,龍安國小(公務人力發展學院),25.02521,121.53491,THB268487,0,
THB268490,聯合報,25.04133,121.56309,THB268490,0,
THB268515,喬治商職,25.02649,121.55475,THB268515,0,
THB268528,圓環(重慶),25.052881,121.514049,THB268528,0,
THB268561,臺大癌醫(基隆路),25.01582,121.54233,THB268561,0,
THB268567,德明財經科技大學(環山),25.08647,121.56751,THB268567,0,
THB268617,喬治商職,25.02623,121.55484,THB268617,0,
THB268753,臺大癌醫(基隆路),25.01546,121.54251,THB268753,0,
THB268763,遠東科技中心,25.063908,121.650623,THB268763,0,
THB268822,師大分部,25.00695,121.5389,THB268822,0,
THB268861,上灣仔,25.066965,121.590534,THB268861,0,
THB268862,三重稅捐分處,25.060218,121.48663,THB268862,0,
THB268901,潭美公園,25.05966,121.58566,THB268901,0,
THB269016,大武崙工業區,25.149163,121.699932,THB269016,0,
THB269035,新北市立仁愛之家,25.19689,121.682982,THB269035,0,
THB269074,天良電視台,25.05615,121.63204,THB269074,0,
THB269147,內寮,25.15775,121.69442,THB269147,0,
THB269189,福二街口,25.08192,121.696623,THB269189,0,
THB269230,大同國小,25.06494947,121.5181773,THB269230,0,
THB269245,大武崙工業區,25.149181,121.699655,THB269245,0,
THB269300,汐止行政中心,25.064487,121.659235,THB269300,0,
THB269301,百一街口,25.0800283,121.6969298,THB269301,0,
THB269339,捷運臺北橋站,25.063272,121.500222,THB269339,0,
THB269340,捷運臺北橋站,25.063,121.50041,THB269340,0,
THB269344,玉田路,25.18863,121.68073,THB269344,0,
THB269392,南港展覽館,25.05534,121.615649,THB269392,0,
THB269402,玉田路,25.18846,121.6803,THB269402,0,
THB269411,汐止國小,25.066326,121.654979,THB269411,0,
THB269412,汐止農會,25.063678,121.657348,THB269412,0,
THB269425,秀峰高中(新台五路),25.06521,121.66079,THB269425,0,
THB269426,捷運中山站(志仁高中),25.053226,121.51874,THB269426,0,
THB269476,新北市立仁愛之家,25.197586,121.682725,THB269476,0,
THB269498,明德三路口,25.07728,121.68894,THB269498,0,
THB269519,民權大龍街口,25.06296,121.51664,THB269519,0,
THB269521,民權路口,25.01085,121.46366,THB269521,0,
THB269529,江山萬里,25.06763,121.66805,THB269529,0,
THB269539,宏國富邑,25.065544,121.674423,THB269539,0,
THB269623,正義郵局,25.04186,121.53931,THB269623,0,
THB269628,民權松江路口,25.06247,121.53272,THB269628,0,
THB269630,民權建國路口,25.06236,121.5377,THB269630,0,
THB269631,民權復興路口,25.062238,121.543944,THB269631,0,
THB269634,石山,25.151933,121.697693,THB269634,0,
THB269641,百三街口,25.081855,121.695575,THB269641,0,
THB269645,行天宮,25.063327,121.533381,THB269645,0,
THB269677,士林區行政中心(基河),25.09293,121.52042,THB269677,0,
THB269701,內寮,25.157657,121.694744,THB269701,0,
THB269735,石山,25.151931,121.697944,THB269735,0,
THB269743,汐止行政中心,25.06476,121.65914,THB269743,0,
THB269744,百三街口,25.081933,121.6956947,THB269744,0,
THB269745,百福國中,25.082936,121.69915,THB269745,0,
THB269751,行天宮,25.064197,121.533124,THB269751,0,
THB269786,東方科學園區,25.0611,121.64835,THB269786,0,
THB269800,南京三民路口,25.0515,121.56026,THB269800,0,
THB269802,南昌街口,25.06579,121.66222,THB269802,0,
THB269820,界寮,25.15994,121.69467,THB269820,0,
THB269833,酒泉重慶路口,25.071974,121.514289,THB269833,0,
THB269837,堵南里,25.077811,121.692222,THB269837,0,
THB269917,南京寧安街口,25.051635,121.554383,THB269917,0,
THB269932,開山宮,25.0682606,121.6427138,THB269932,0,
THB269961,捷運民權西路站,25.0629,121.5189,THB269961,0,
THB270005,萬里區公所,25.17825281,121.6901092,THB270005,0,
THB270006,萬里海水浴場,25.180317,121.68925,THB270006,0,
THB270007,萬里橋頭,25.176024,121.687745,THB270007,0,
THB270013,武聖街口,25.156774,121.695973,THB270013,0,
THB270020,保安里,25.07314,121.67513,THB270020,0,
THB270065,國立科教館,25.095327,121.517394,THB270065,0,
THB270102,萬里區公所,25.178489,121.690342,THB270102,0,
THB270139,南京建國路口,25.05197,121.53629,THB270139,0,
THB270140,捷運南京復興站,25.051841,121.543684,THB270140,0,
THB270141,南京龍江路口,25.051945,121.540212,THB270141,0,
THB270158,活力社區,25.06671,121.67155,THB270158,0,
THB270159,美崙,25.184671,121.686499,THB270159,0,
THB270229,臺北市立美術館,25.07234,121.52408,THB270229,0,
THB270231,遠東世界中心,25.06086,121.64592,THB270231,0,
THB270250,長安里,25.075994,121.673186,THB270250,0,
THB270256,保新街,25.07229,121.68948,THB270256,0,
THB270257,保新街,25.072811,121.689515,THB270257,0,
THB270293,連興街口,25.06209,121.65298,THB270293,0,
THB270294,連興街口,25.06231,121.654176,THB270294,0,
THB270340,臺北科技大學(忠孝),25.04203,121.5341,THB270340,0,
THB270343,樟樹一路口,25.062418,121.641599,THB270343,0,
THB270344,樟樹國際實中,25.0653,121.6398,THB270344,0,
THB270352,磚廠,25.168397,121.680388,THB270352,0,
THB270359,松山機場,25.063393,121.552067,THB270359,0,
THB270370,南港,25.05515589,121.6135964,THB270370,0,
THB270379,厚德里,25.06857,121.64076,THB270379,0,
THB270382,忠孝里,25.0648192,121.64217,THB270382,0,
THB270385,活力社區,25.06608,121.6722,THB270385,0,
THB270391,美崙,25.18462423,121.6865563,THB270391,0,
THB270412,捷運松江南京站,25.05199,121.53264,THB270412,0,
THB270424,景美里,25.17212,121.684242,THB270424,0,
THB270449,萬里海水浴場,25.18044,121.68925,THB270449,0,
THB270450,萬里橋頭,25.176039,121.688052,THB270450,0,
THB270468,翡翠灣,25.186073,121.683767,THB270468,0,
THB270469,翡翠灣,25.18685663,121.6837809,THB270469,0,
THB270478,樟樹國小(樟樹一路),25.06685,121.64252,THB270478,0,
THB270518,華山文創園區,25.04397,121.5275,THB270518,0,
THB270525,磚廠,25.168227,121.680356,THB270525,0,
THB270537,藍天麗地社區,25.15457,121.69672,THB270537,0,
THB270546,南昌街口,25.0662317518449,121.662788092945,THB270546,0,
THB270574,堵南里,25.078132,121.691834,THB270574,0,
THB270579,懷生國中,25.04153,121.541233,THB270579,0,
THB270639,監理站,25.088181,121.697633,THB270639,0,
THB270668,藍天麗地社區,25.15412034,121.6972057,THB270668,0,
THB270701,大同路口,25.06143,121.49484,THB270701,0,
THB270702,大同路口,25.061286,121.494433,THB270702,0,
THB270761,基隆市界,25.075439,121.685412,THB270761,0,
THB270767,民權中山路口,25.06266,121.52224,THB270767,0,
THB270768,民權中山路口,25.06284,121.52286,THB270768,0,
THB270769,民權吉林路口,25.06265096,121.5291696,THB270769,0,
THB270770,民權吉林路口,25.06257,121.5293,THB270770,0,
THB270779,富信飯店,25.05588,121.63212,THB270779,0,
THB270785,汐止農會,25.0633122,121.655986,THB270785,0,
THB270812,臺北市立美術館,25.06997,121.52309,THB270812,0,
THB270814,遠東世界中心,25.06063,121.64655,THB270814,0,
THB270821,聯合報總部,25.060769,121.641867,THB270821,0,
THB270822,聯合報總部,25.060692,121.64172,THB270822,0,
THB270832,國泰醫院,25.071542,121.664956,THB270832,0,
THB270835,新北市界,25.16488,121.68562,THB270835,0,
THB270843,芥菜種會萬里營地,25.191664,121.68009,THB270843,0,
THB270848,南京舊宗路口,25.05618,121.57988,THB270848,0,
THB270882,芥菜種會萬里營地,25.191795,121.679897,THB270882,0,
THB270897,新北市界,25.16508297,121.6856196,THB270897,0,
THB270966,南京三民路口,25.05157,121.56112,THB270966,0,
THB270967,南京林森路口,25.052106,121.5251022,THB270967,0,
THB270968,南京敦化路口(小巨蛋),25.051836,121.547973,THB270968,0,
THB271067,南京舊宗路口,25.05628,121.57968,THB271067,0,
THB271131,昌吉重慶路口,25.06556,121.51373,THB271131,0,
THB271152,新泰路口,25.03503,121.44782,THB271152,0,
THB271155,實踐路,25.08364,121.6942,THB271155,0,
THB271173,百六街口,25.08534,121.69828,THB271173,0,
THB271191,捷運南港展覽館站(經貿二),25.05657428,121.6170446,THB271191,0,
THB271193,新泰路口,25.03533,121.44808,THB271193,0,
THB271212,民權大龍街口,25.06308,121.51663,THB271212,0,
THB271215,福二街口,25.08192,121.696613,THB271215,0,
THB271218,後站商圈,25.007314,121.460581,THB271218,0,
THB271223,捷運頭前庄站,25.039966,121.462277,THB271223,0,
THB271227,瑞光路,25.0747298367278,121.577510934816,THB271227,0,
THB271228,瑞光路,25.074712,121.577643,THB271228,0,
THB271234,七堵工業區,25.09303,121.69971,THB271234,0,
THB271243,五谷王廟,25.04704,121.47398,THB271243,0,
THB271262,捷運頭前庄站,25.04005,121.46208,THB271262,0,
THB271270,龍華科技大學,25.017711,121.404585,THB271270,0,
THB271289,聯合醫院和平院區,25.035726,121.506596,THB271289,0,
THB271332,大慶蓮莊,25.016633,121.400411,THB271332,0,
THB271345,中興街口,25.045481,121.46946,THB271345,0,
THB271359,海山里,25.0348,121.44594,THB271359,0,
THB271369,龍華科技大學,25.017818,121.40432,THB271369,0,
THB271370,迴龍派出所,25.0190021512404,121.409038438918,THB271370,0,
THB271371,迴龍派出所,25.0196406533217,121.409111375284,THB271371,0,
THB271373,捷運菜寮站,25.05914,121.49059,THB271373,0,
THB271380,堵南國小,25.084692,121.692314,THB271380,0,
THB271388,百福國中,25.08306,121.69889,THB271388,0,
THB271389,武聖街口,25.15662802,121.6959592,THB271389,0,
THB271391,金陵女中,25.04312,121.4666,THB271391,0,
THB271400,大慶蓮莊,25.01674,121.400852,THB271400,0,
THB271408,捷運輔大站,25.03252,121.434923,THB271408,0,
THB271449,東南科技大學,25.002345,121.604279,THB271449,0,
THB271450,萬順寮,25.003666,121.601454,THB271450,0,
THB271455,台新工廠,25.0014822023055,121.606858212022,THB271455,0,
THB271459,草地尾,25.004586,121.59838,THB271459,0,
THB271482,捷運松江南京站,25.052549,121.532912,THB271482,0,
THB273764,金華新生路口,25.03074,121.53354,THB273764,0,
THB273770,仁愛敦化路口(圓環),25.03777,121.54764,THB273770,0,
THB273777,仁愛大安路口(仁愛醫院),25.03781,121.54592,THB273777,0,
THB273787,仁愛建國路口一,25.03802,121.53695,THB273787,0,
THB273788,仁愛復興路口(福華飯店),25.03797,121.54399,THB273788,0,
THB273789,仁愛敦化路口(圓環),25.038,121.54755,THB273789,0,
THB273798,仁愛建國路口二,25.03789,121.54115,THB273798,0,
THB273799,和平新生路口,25.026117,121.534808,THB273799,0,
THB273800,臺大,25.017868,121.533645,THB273800,0,
THB273801,幸安國小,25.03798,121.53462,THB273801,0,
THB273802,金華新生路口,25.03051,121.53389,THB273802,0,
THB273829,捷運民權西路站,25.062924,121.518804,THB273829,0,
THB274874,新莊國小,25.036659,121.456342,THB274874,0,
THB276375,汐止,25.06914,121.66208,THB276375,0,
THB280683,松山機場,25.063344,121.551317,THB280683,0,
THB280709,板橋客運站,25.01551,121.46511,THB280709,0,
THB281415,松山機場,25.06326,121.55132,THB281415,0,
THB281513,中華路北站,25.045787,121.509434,THB281513,0,
THB281514,捷運西門站,25.041758,121.508263,THB281514,0,
THB282144,中山藝術公園,25.06033,121.49242,THB282144,0,
THB282488,草地尾,25.00476,121.59844,THB282488,0,
THB282489,萬順寮,25.00378,121.601436,THB282489,0,
THB282495,東南科技大學,25.0026,121.60403,THB282495,0,
THB282596,台新工廠,25.00163,121.60686,THB282596,0,
THB283043,玉成國小,25.054071,121.591885,THB283043,0,
THB283044,玉成國小,25.054069,121.591894,THB283044,0,
THB283089,高公局,25.06658,121.42446,THB283089,0,
THB283250,南京寧安街口,25.05170862,121.55566553,THB283250,0,
THB283295,捷運劍潭站(北藝中心),25.08516,121.52505,THB283295,0,
THB283557,臺北科技大學(忠孝),25.04234,121.53417,THB283557,0,
THB283604,內寮,25.1577,121.69442,THB283604,0,
THB283617,潭美公園,25.059656,121.585651,THB283617,0,
THB283636,內寮,25.15772,121.69466,THB283636,0,
THB283958,大龍市場(啟聰學校),25.074985,121.514033,THB283958,0,
THB284099,民生重慶路口,25.057217,121.513658,THB284099,0,
THB284100,民生重慶路口,25.05676,121.51397,THB284100,0,
THB284129,捷運公館站,25.01432,121.53471,THB284129,0,
THB284140,高公局,25.06729,121.42399,THB284140,0,
THB284141,高公局,25.06722,121.423949,THB284141,0,
THB284177,基隆市界(基金三路),25.16193,121.68894,THB284177,0,
THB284293,基隆市界,25.075655,121.685368,THB284293,0,
THB284297,民權龍江路口,25.06228,121.5403,THB284297,0,
THB284375,捷運公館站,25.01309,121.53612,THB284375,0,
THB284379,師大分部,25.00822,121.53808,THB284379,0,
THB284384,捷運忠孝敦化站,25.04132,121.55028,THB284384,0,
THB284590,江山萬里,25.06743,121.66793,THB284590,0,
THB284594,遠東世界中心,25.06066,121.64656,THB284594,0,
THB284595,東方科學園區,25.0611,121.64837,THB284595,0,
THB284596,南樟樹灣,25.057623,121.634247,THB284596,0,
THB284598,樟樹灣,25.059163,121.638146,THB284598,0,
THB284603,宏國富邑,25.06591,121.67489,THB284603,0,
THB284607,南港,25.055461,121.613509,THB284607,0,
THB284629,公館,25.012218,121.538635,THB284629,0,
THB285317,昊天嶺,25.062018,121.644479,THB285317,0,
THB285325,崇義高中(五堵車站),25.076942,121.667567,THB285325,0,
THB285328,崇義高中(五堵車站),25.0775028,121.6679549,THB285328,0,
THB285330,長安里,25.076313,121.673178,THB285330,0,
THB285334,保長坑,25.071297,121.679138,THB285334,0,
THB285337,明德三路口,25.077414,121.688786,THB285337,0,
THB285345,百福國中,25.08307,121.69898,THB285345,0,
THB285348,百福國中,25.082928,121.699061,THB285348,0,
THB285350,監理站,25.0874275,121.6977898,THB285350,0,
THB285360,摩天鎮,25.0748,121.68323,THB285360,0,
THB285375,長壽西街口,25.06696,121.49627,THB285375,0,
THB285425,信義新生路口,25.03333,121.53289,THB285425,0,
THB285427,菜寮(重新路),25.05732,121.488203,THB285427,0,
THB285625,南樟樹灣,25.0577577,121.6349915,THB285625,0,
THB285633,南京林森路口,25.05215,121.52585,THB285633,0,
THB285635,捷運松江南京站,25.052043,121.533594,THB285635,0,
THB285636,南京建國路口,25.05199,121.53742,THB285636,0,
THB285638,南京龍江路口,25.051985,121.540888,THB285638,0,
THB285639,捷運南京復興站,25.051913,121.544714,THB285639,0,
THB285641,南京敦化路口(小巨蛋),25.051869,121.549506,THB285641,0,
THB285644,信義新生路口,25.033331,121.53289,THB285644,0,
THB285647,樟樹灣,25.05912,121.638367,THB285647,0,
THB285671,交通部觀光署,25.041269,121.555789,THB285671,0,
THB285673,潭美公園,25.059205,121.585694,THB285673,0,
THB285791,南樟樹灣,25.057793,121.635029,THB285791,0,
THB285972,松山車站(松山),25.047097,121.577647,THB285972,0,
THB285973,松山車站(松山),25.04734,121.5779,THB285973,0,
THB285980,新湖一路口,25.06088,121.57892,THB285980,0,
THB286177,陽明高中,25.092161,121.518019,THB286177,0,
THB286178,信義新生路口,25.03403,121.53258,THB286178,0,
THB286180,臺大,25.01824,121.53346,THB286180,0,
THB286462,南京公寓(捷運南京三民),25.051499,121.56665,THB286462,0,
THB286730,南京公寓(捷運南京三民),25.05114,121.566786,THB286730,0,
THB286959,樟樹一路口,25.0624419,121.6416844,THB286959,0,
THB287429,捷運劍潭站(北藝中心),25.08504,121.52507,THB287429,0,
THB289779,市府轉運站,25.04077,121.56449,THB289779,0,
THB289781,市府轉運站,25.04077,121.56449,THB289781,0,
THB289782,市府轉運站,25.04077,121.56449,THB289782,0,
THB289783,市府轉運站,25.04077,121.56449,THB289783,0,
THB289784,市府轉運站,25.04077,121.56449,THB289784,0,
THB289785,市府轉運站,25.04077,121.56449,THB289785,0,
THB289789,市府轉運站,25.040448,121.564772,THB289789,0,
THB289792,臺北轉運站,25.04887,121.51761,THB289792,0,
THB289793,臺北轉運站,25.048851,121.51747,THB289793,0,
THB289794,臺北轉運站,25.049098,121.517801,THB289794,0,
THB289796,臺北轉運站,25.049405,121.516778,THB289796,0,
THB289798,臺北轉運站,25.04887,121.51761,THB289798,0,
THB289799,臺北轉運站,25.04959,121.517045,THB289799,0,
THB289800,臺北轉運站,25.04887,121.51761,THB289800,0,
THB289808,長元西街口,25.06538,121.49686,THB289808,0,
THB290370,圓環(南京),25.053656,121.515774,THB290370,0,
THB290397,菜寮(重陽路),25.05825,121.48659,THB290397,0,
THB290593,圓山轉運站(捷運圓山站),25.071171,121.51996,THB290593,0,
THB290604,圓山轉運站(捷運圓山站),25.07151,121.520027,THB290604,0,
THB290727,汐科站南站,25.0629759,121.6470685,THB290727,0,
THB290729,百一街口,25.0801,121.69764,THB290729,0,
THB290736,捷運南港展覽館站(南港路),25.05483,121.61802,THB290736,0,
THB290759,圓山轉運站(捷運圓山站),25.071644,121.520054,THB290759,0,
THB292064,捷運南港展覽館站(南港路),25.05519,121.61749,THB292064,0,
THB292065,捷運南港展覽館站(南港路),25.05483,121.61802,THB292065,0,
THB292087,臺灣科技大學,25.01348,121.54028,THB292087,0,
THB292088,臺灣科技大學,25.01427,121.54049,THB292088,0,
THB292101,成功國宅,25.02904,121.548501,THB292101,0,
THB292102,成功國宅,25.027534,121.549034,THB292102,0,
THB292103,臺灣科技大學,25.01427,121.54049,THB292103,0,
THB292104,臺灣科技大學,25.01348,121.54028,THB292104,0,
THB292123,武聖街口,25.1566052,121.6957692,THB292123,0,
THB292124,武聖街口,25.15677,121.69598,THB292124,0,
THB292125,藍天麗地社區,25.15457,121.69672,THB292125,0,
THB292126,藍天麗地社區,25.15416,121.69704,THB292126,0,
THB292127,石山,25.151909,121.69769,THB292127,0,
THB292128,石山,25.15199,121.69804,THB292128,0,
THB292129,大武崙工業區,25.149117,121.6997,THB292129,0,
THB292130,大武崙工業區,25.14915,121.69994,THB292130,0,
THB292158,天良電視台,25.05615,121.63204,THB292158,0,
THB292159,富信飯店,25.055954,121.63209,THB292159,0,
THB292160,橫科,25.05511,121.62115,THB292160,0,
THB292161,橫科,25.05487,121.62139,THB292161,0,
THB292319,南港車站,25.05319,121.60717,THB292319,0,
THB292321,南港車站,25.053376,121.606989,THB292321,0,
THB292411,汐止,25.06914,121.66208,THB292411,0,
THB292459,捷運輔大站,25.032392,121.43347,THB292459,0,
THB292510,慶城街口,25.05451,121.54538,THB292510,0,
THB292832,福二街口,25.081825,121.696835,THB292832,0,
THB293151,圓山皇宮大廈,25.083313,121.523649,THB293151,0,
THB293275,修德國小,25.067038,121.489499,THB293275,0,
THB293422,雙溪公園,25.09781,121.53792,THB293422,0,
THB293554,大龍市場(啟聰學校),25.074899,121.514032,THB293554,0,
THB293583,百六街口,25.0853612,121.6983614,THB293583,0,
THB293586,百六街口,25.084929,121.698555,THB293586,0,
THB293805,五谷王廟,25.04736,121.47424,THB293805,0,
THB293817,捷運丹鳳站,25.028853,121.422096,THB293817,0,
THB293819,捷運忠孝復興站,25.040822,121.543613,THB293819,0,
THB293883,華山文創園區,25.043824,121.526285,THB293883,0,
THB293886,捷運迴龍站,25.021389,121.411389,THB293886,0,
THB293929,酒泉重慶路口,25.07214,121.514559,THB293929,0,
THB293978,捷運丹鳳站,25.028601,121.422156,THB293978,0,
THB294060,世貿中心(基隆路),25.033563,121.560071,THB294060,0,
THB294061,世貿中心(基隆路),25.033618,121.559802,THB294061,0,
THB294069,捷運南港展覽館站(經貿二),25.05617,121.6171,THB294069,0,
THB294072,潭美國小(舊宗),25.05841,121.58051,THB294072,0,
THB294073,潭美國小(舊宗),25.058092,121.580964,THB294073,0,
THB294076,福安宮,25.0702495,121.6413928,THB294076,0,
THB294201,長庚醫院,25.055653,121.549528,THB294201,0,
THB294213,捷運南港展覽館站(南港路),25.05516,121.61752,THB294213,0,
THB294529,榮星花園(民權),25.062607,121.540407,THB294529,0,
THB294530,榮星花園(民權),25.06228,121.5403,THB294530,0,
THB294707,明德三路口,25.07732,121.6889,THB294707,0,
THB294708,明德三路口,25.07755,121.68881,THB294708,0,
THB294799,行天宮,25.06452,121.53305,THB294799,0,
THB294800,民權復興路口,25.06224,121.54463,THB294800,0,
THB294801,民權龍江路口,25.06244,121.54125,THB294801,0,
THB294802,民權建國路口,25.06247,121.53748,THB294802,0,
THB294803,行天宮,25.063401,121.533381,THB294803,0,
THB294820,龜吼漁港,25.19612,121.688,THB294820,0,
THB294821,翡翠灣,25.18716,121.68323,THB294821,0,
THB294822,美崙,25.18462,121.68599,THB294822,0,
THB294823,萬里海水浴場,25.1802669,121.6893057,THB294823,0,
THB294824,萬里區公所,25.17839,121.69009,THB294824,0,
THB294825,萬里橋頭,25.1762,121.68803,THB294825,0,
THB294826,景美里,25.17193,121.684,THB294826,0,
THB294827,磚廠,25.16847,121.68043,THB294827,0,
THB294828,中幅,25.1655204,121.6818738,THB294828,0,
THB294829,基隆市界(基金三路),25.16193,121.68894,THB294829,0,
THB294830,內寮,25.157724,121.69446,THB294830,0,
THB294831,武聖街口,25.15656,121.69581,THB294831,0,
THB294832,藍天麗地社區,25.15458,121.69674,THB294832,0,
THB294833,石山,25.1519,121.69769,THB294833,0,
THB294834,大武崙工業區,25.14906,121.69977,THB294834,0,
THB294840,自來水處(辛亥),25.017971,121.5483452,THB294840,0,
THB294841,臺大計資中心,25.021683,121.54052,THB294841,0,
THB294842,臺大,25.018228,121.53351,THB294842,0,
THB294844,台電大樓,25.017941,121.531363,THB294844,0,
THB294845,復興南路口,25.02493,121.542179,THB294845,0,
THB294846,臺大國青大樓,25.020663,121.544377,THB294846,0,
THB294847,自來水處(辛亥),25.0176,121.54784,THB294847,0,
THB294854,大武崙工業區,25.14908,121.69996,THB294854,0,
THB294855,石山,25.15209,121.69779,THB294855,0,
THB294856,藍天麗地社區,25.154057,121.697075,THB294856,0,
THB294857,武聖街口,25.156742,121.695899,THB294857,0,
THB294858,內寮,25.157822,121.694591,THB294858,0,
THB294859,界寮,25.159847,121.694682,THB294859,0,
THB294860,基隆市界(基金三路),25.161995,121.689127,THB294860,0,
THB294861,中幅,25.16567,121.68189,THB294861,0,
THB294862,磚廠,25.168247,121.680365,THB294862,0,
THB294863,景美里,25.172038,121.684382,THB294863,0,
THB294864,萬里橋頭,25.17607,121.68798,THB294864,0,
THB294865,萬里區公所,25.178205,121.689976,THB294865,0,
THB294866,萬里海水浴場,25.180826,121.688819,THB294866,0,
THB294867,美崙,25.184609,121.686492,THB294867,0,
THB294868,翡翠灣,25.186826,121.683555,THB294868,0,
THB294869,龜吼漁港,25.19583,121.68631,THB294869,0,
THB294944,雙鳳富國路口,25.02575,121.4173,THB294944,0,
THB294945,雙鳳富國路口,25.02601,121.417676,THB294945,0,
THB295099,啟聰學校,25.074485,121.51378,THB295099,0,
THB295106,大龍市場(啟聰學校),25.074293,121.513954,THB295106,0,
THB295912,高公局,25.06658,121.42446,THB295912,0,
THB295913,高公局,25.06729,121.42399,THB295913,0,
THB295944,正義重新路口,25.06335,121.49735,THB295944,0,
THB295946,德林寺(三和路),25.072085,121.49432,THB295946,0,
THB295970,臺北市區監理所,25.04839,121.55989,THB295970,0,
THB296473,象頭埔,25.000103,121.590458,THB296473,0,
THB296474,象頭埔,25.000143,121.5901,THB296474,0,
THB296501,臺北小巨蛋,25.052059,121.548865,THB296501,0,
THB296502,臺北小巨蛋,25.052518,121.549306,THB296502,0,
THB296518,內湖行政中心,25.069189,121.588254,THB296518,0,
THB296519,內湖行政中心,25.0689,121.5888,THB296519,0,
THB296522,陽光抽水站,25.07215,121.5744,THB296522,0,
THB296540,松山車站,25.0499957,121.5786063,THB296540,0,
THB296541,松山車站(八德),25.050163,121.57745,THB296541,0,
THB296543,松山車站(八德),25.050163,121.57745,THB296543,0,
THB296588,楓子林路口,25.008729,121.642267,THB296588,0,
THB296589,楓子林路口,25.00914,121.64282,THB296589,0,
THB296645,臺安醫院,25.04836,121.545462,THB296645,0,
THB296672,高公局,25.067253,121.424102,THB296672,0,
THB296674,高公局,25.066626,121.424521,THB296674,0,
THB296675,民權建國路口,25.06239,121.53652,THB296675,0,
THB296676,民權龍江路口,25.06237,121.54041,THB296676,0,
THB296683,長庚醫院,25.056889,121.54927,THB296683,0,
THB296907,捷運行天宮站(松江路),25.060546,121.532997,THB296907,0,
THB296908,捷運南京復興站,25.05274,121.54423,THB296908,0,
THB296909,臺視,25.0481,121.55117,THB296909,0,
THB296910,臺視,25.04827,121.55019,THB296910,0,
THB296911,松山車站(八德),25.04998718,121.5769043,THB296911,0,
THB296912,松山車站(八德),25.05015759,121.5772924,THB296912,0,
THB296913,捷運南京復興站,25.052285,121.543877,THB296913,0,
THB296915,松江新村,25.06132,121.53336,THB296915,0,
THB296941,捷運行天宮站(松江路),25.06062,121.53314,THB296941,0,
THB297280,饒河街觀光夜市(八德),25.049801,121.571886,THB297280,0,
THB297281,饒河街觀光夜市(八德),25.04999,121.57149,THB297281,0,
THB297282,國泰醫院,25.07152,121.665,THB297282,0,
THB297283,國泰醫院,25.07164,121.6647,THB297283,0,
THB297284,天良電視台,25.05615,121.63204,THB297284,0,
THB297285,富信飯店,25.05589,121.6321,THB297285,0,
THB299756,潭美公園,25.05966,121.58566,THB299756,0,
THB299757,市府轉運站,25.04077,121.56449,THB299757,0,
THB299758,潭美公園,25.05917,121.58578,THB299758,0,
THB300198,庫倫街口,25.070919,121.518331,THB300198,0,
THB300225,中興中學,25.048159,121.543125,THB300225,0,
THB300226,臺安醫院,25.047988,121.545133,THB300226,0,
THB300227,中崙,25.04735,121.54267,THB300227,0,
THB300320,石潭公園(成功),25.06111,121.59104,THB300320,0,
THB300321,石潭公園(成功),25.06138,121.59124,THB300321,0,
THB300436,修德國小,25.06701,121.48921,THB300436,0,
THB300440,修德國小,25.06701,121.48921,THB300440,0,
THB300475,臺北車站(鄭州),25.04882,121.51764,THB300475,0,
THB300477,捷運北門站,25.04896,121.510309,THB300477,0,
THB300505,捷運芝山站(戲曲中心),25.10231,121.52033,THB300505,0,
THB300514,臺北車站(鄭州),25.048361,121.517615,THB300514,0,
THB300516,臺北車站(東三門),25.047926,121.518407,THB300516,0,
THB300673,松山車站,25.05003,121.578583,THB300673,0,
THB300865,南港轉運站西站,25.05212,121.60652,THB300865,0,
THB300867,聯合報,25.04133,121.56277,THB300867,0,
THB300873,捷運南港展覽館站(南港路),25.05516,121.61752,THB300873,0,
THB300881,國光客運臺北車站,25.048,121.51876,THB300881,0,
THB301356,捷運中山站(志仁高中),25.052876,121.518653,THB301356,0,
THB301512,圓山轉運站(玉門),25.072347,121.520435,THB301512,0,
THB301666,圓山轉運站(玉門),25.072347,121.520435,THB301666,0,
THB301667,圓山轉運站(玉門),25.072347,121.520435,THB301667,0,
THB301881,臺北車站(鄭州),25.04836,121.517615,THB301881,0,
THB301883,民族重慶路口,25.068401,121.513826,THB301883,0,
THB302045,捷運府中站,25.0092014,121.4601541,THB302045,0,
THB302048,國泰醫院,25.07164,121.6647,THB302048,0,
THB302104,八德東寧路口,25.04888,121.56458,THB302104,0,
THB302105,八德東寧路口,25.0488999,121.5637914,THB302105,0,
THB302313,捷運港墘站(內湖高工),25.07984,121.576121,THB302313,0,
THB302314,捷運港墘站(內湖高工),25.080092,121.574711,THB302314,0,
THB302351,圓山轉運站(捷運圓山站),25.07175,121.52002,THB302351,0,
THB302401,臺北大學(臺北校區),25.05793,121.54174,THB302401,0,
THB302402,臺北大學(臺北校區),25.05766,121.54283,THB302402,0,
THB302415,捷運六張犁站(基隆路),25.023712,121.552041,THB302415,0,
THB302416,捷運六張犁站(基隆路),25.023628,121.55159,THB302416,0,
THB302492,亞太科技園區,25.07268,121.68296,THB302492,0,
THB302493,亞太科技園區,25.07287,121.68336,THB302493,0,
THB302526,捷運圓山站,25.069629,121.520179,THB302526,0,
THB302632,聯合醫院和平院區,25.036548,121.506512,THB302632,0,
THB302633,捷運西門站,25.039942,121.507858,THB302633,0,
THB302634,捷運西門站,25.041532,121.507861,THB302634,0,
THB302635,國光客運臺北車站,25.048179,121.518465,THB302635,0,
THB302783,板橋客運站,25.01484,121.46328,THB302783,0,
THB302905,松山機場,25.063365,121.551318,THB302905,0,
THB303002,圓山轉運站(玉門),25.072347,121.520435,THB303002,0,
THB303151,臺北市區監理所,25.048415,121.559588,THB303151,0,
THB303166,捷運行天宮站(民生東路),25.057929,121.532472,THB303166,0,
THB303167,臺北大學(臺北校區),25.05766,121.54283,THB303167,0,
THB303168,松山機場,25.06326,121.55132,THB303168,0,
THB303169,臺北大學(臺北校區),25.05793,121.54174,THB303169,0,
THB303170,捷運行天宮站(民生東路),25.057998,121.532048,THB303170,0,
THB303228,南京吉林路口,25.052234,121.530545,THB303228,0,
THB303229,南京吉林路口,25.05202,121.52976,THB303229,0,
THB303289,師大分部,25.00833241,121.5378656,THB303289,0,
THB303290,師大分部,25.00693,121.53909,THB303290,0,
THB303387,武聖街口,25.15656,121.69583,THB303387,0,
THB303447,捷運科技大樓站,25.026957,121.543354,THB303447,0,
THB303512,潭美公園,25.059658,121.585689,THB303512,0,
THB303513,潭美公園,25.05923,121.585791,THB303513,0,
THB303516,南京公寓(捷運南京三民),25.051499,121.56665,THB303516,0,
THB303517,南京公寓(捷運南京三民),25.051246,121.566622,THB303517,0,
THB303520,交通部觀光署,25.041483,121.555927,THB303520,0,
THB303521,交通部觀光署,25.041269,121.555789,THB303521,0,
THB303522,捷運忠孝敦化站,25.041577,121.550241,THB303522,0,
THB303523,捷運忠孝敦化站,25.04137749,121.5503038,THB303523,0,
THB303524,捷運忠孝復興站,25.041772,121.542599,THB303524,0,
THB303525,懷生國中,25.041537,121.541075,THB303525,0,
THB303725,八德東寧路口,25.04891,121.56379,THB303725,0,
THB303866,板橋客運站,25.01551,121.46511,THB303866,0,
THB303890,南港轉運站西站,25.05212,121.60652,THB303890,0,
THB304161,空軍總部,25.040575,121.537846,THB304161,0,
THB304180,捷運中山國中站,25.06133,121.54398,THB304180,0,
THB304422,板橋客運站,25.01551,121.46511,THB304422,0,
THB304442,大龍市場,25.074985,121.514033,THB304442,0,
THB304562,基隆長興街口,25.017545,121.544517,THB304562,0,
THB304803,民權松江路口,25.06261,121.533631,THB304803,0,
THB304805,捷運行天宮站(松江路),25.060631,121.533095,THB304805,0,
THB304806,長春松江路口,25.05529925,121.5329506,THB304806,0,
THB304807,長安松江路口,25.048851,121.532879,THB304807,0,
THB304808,捷運忠孝新生站,25.040546,121.532758,THB304808,0,
THB304809,仁愛新生路口,25.038569,121.532708,THB304809,0,
THB304810,信義新生路口,25.033787,121.532615,THB304810,0,
THB304811,金華新生路口,25.030742,121.53356,THB304811,0,
THB304812,大安森林公園,25.025786,121.536022,THB304812,0,
THB304813,國立臺北教育大學,25.024531,121.543324,THB304813,0,
THB304814,臺大國青大樓,25.020799,121.544442,THB304814,0,
THB304815,自來水處(辛亥),25.017694,121.547862,THB304815,0,
THB304994,朝陽公園(鈕釦街),25.055744,121.513847,THB304994,0,
THB305024,朝陽公園(鈕釦街),25.055744,121.513847,THB305024,0,
THB305107,萬福橋,25.003114,121.585325,THB305107,0,
THB305108,萬福橋,25.002988,121.584698,THB305108,0,
THB305194,松山車站(松隆),25.04821,121.57893,THB305194,0,
THB305195,松山高中(松隆),25.04389,121.56757,THB305195,0,
THB305196,松山高中(松隆),25.04346,121.5675,THB305196,0,
THB305197,松山車站,25.04977,121.5782,THB305197,0,
THB305234,松山高中(基隆路),25.0444,121.56619,THB305234,0,
THB305259,啟聰學校,25.074638,121.513766,THB305259,0,
THB305260,朝陽公園(鈕釦街),25.055523,121.514023,THB305260,0,
THB305261,臺北轉運站,25.049747,121.516915,THB305261,0,
THB305352,盲人重建院,25.03362,121.440454,THB305352,0,
THB305751,重慶站,25.073443,121.513942,THB305751,0,
THB305917,馬偕醫院,25.057734,121.521382,THB305917,0,
THB305918,馬偕醫院,25.057734,121.521382,THB305918,0,
THB305919,華泰飯店,25.058035,121.524405,THB305919,0,
THB305920,華泰飯店,25.058091,121.524769,THB305920,0,
THB306027,聯合報,25.04133,121.56277,THB306027,0,
THB307296,龍安國小(公務人力發展學院),25.02525,121.53495,THB307296,0,
THB307459,光華商場,25.044532,121.532734,THB307459,0,
THB307595,臺北轉運站,25.05042,121.51669,THB307595,0,
THB307649,自來水處(辛亥),25.018141,121.548159,THB307649,0,
THB307650,大安運動中心,25.020302,121.54589,THB307650,0,
THB307651,復興南路口,25.025118,121.542316,THB307651,0,
THB307652,大安森林公園,25.025954,121.53632,THB307652,0,
THB307658,捷運台北101/世貿站(信義),25.033037,121.564501,THB307658,0,
THB307712,公館,25.01221,121.53863,THB307712,0,
THB307713,公館,25.0122,121.53809,THB307713,0,
THB307962,聯合報,25.04138,121.56213,THB307962,0,
THB308269,民生重慶路口,25.057217,121.513658,THB308269,0,
THB308270,朝陽公園(鈕釦街),25.055744,121.513847,THB308270,0,
THB308454,大同路二段312巷10號,25.06614,121.65582,THB308454,0,
THB308455,大同路二段312巷10號,25.0661,121.65595,THB308455,0,
THB308456,連興街口,25.06215,121.65295,THB308456,0,
THB308457,連興街口,25.06231,121.65419,THB308457,0,
THB308458,東方科學園區,25.06152,121.64917,THB308458,0,
THB308653,士林市場(銘傳會館),25.088174,121.523707,THB308653,0,
THB308654,士林市場(銘傳會館),25.088727,121.523556,THB308654,0,
THB308931,國賓飯店,25.0565,121.522635,THB308931,0,
THB309001,長元西街口,25.065106,121.496985,THB309001,0,
THB309068,大龍市場(啟聰學校),25.074899,121.514032,THB309068,0,
THB309530,聚盛里,25.058715,121.525611,THB309530,0,
THB309531,大龍市場(啟聰學校),25.074889,121.513939,THB309531,0,
KEE306350,大武崙工業區,25.149168,121.699903,KEE306350,0,
KEE306351,石山,25.151925,121.697931,KEE306351,0,
KEE306352,藍天麗地社區,25.154507,121.696701,KEE306352,0,
KEE306353,武聖街口,25.1568,121.6947,KEE306353,0,
KEE306354,武隆街105巷,25.158376,121.693854,KEE306354,0,
KEE306570,監理站,25.088155,121.697625,KEE306570,0,
KEE306571,百六街口,25.085406,121.698495,KEE306571,0,
KEE306572,百福國中,25.082906,121.699148,KEE306572,0,
KEE306573,福三街口,25.08186,121.698239,KEE306573,0,
KEE306575,福二街口,25.081981,121.695678,KEE306575,0,
KEE306576,百三街口,25.08179,121.69637,KEE306576,0,
KEE306577,百福火車站,25.078498,121.692261,KEE306577,0,
KEE306603,百福國中,25.08311,121.69893,KEE306603,0,
KEE306604,百六街口,25.085499,121.698355,KEE306604,0,
KEE306605,消防隊,25.085483,121.69724,KEE306605,0,
KEE306606,百七街口,25.086335,121.694476,KEE306606,0,
KEE306607,福一街口,25.08303,121.69504,KEE306607,0,
KEE306608,百福宮,25.081841,121.695475,KEE306608,0,
KEE306821,武隆街105巷,25.158371,121.693885,KEE306821,0,
KEE306823,隆聖國小,25.15695,121.69478,KEE306823,0,
KEE306824,武聖街口,25.156616,121.69596,KEE306824,0,
KEE306825,石山,25.15187,121.697765,KEE306825,0,
KEE306826,大武崙工業區,25.14907,121.699916,KEE306826,0,
KEE306995,火炭坑,25.100953,121.698801,KEE306995,0,
KEE306996,火炭坑,25.100883,121.69893,KEE306996,0,
KEE307013,港口,25.101715,121.69596,KEE307013,0,
KEE307015,港口,25.101625,121.695973,KEE307015,0,
KEE307016,慶國橋,25.104831,121.69623,KEE307016,0,
KEE307017,慶國橋,25.104866,121.696178,KEE307017,0,
KEE307018,中埔,25.105075,121.69367,KEE307018,0,
KEE307019,中埔,25.105,121.693758,KEE307019,0,
KEE307020,旭騰,25.105966,121.692338,KEE307020,0,
KEE307021,旭騰,25.10605,121.692325,KEE307021,0,
KEE307022,瑪南里,25.109,121.691813,KEE307022,0,
KEE307023,瑪南里,25.108925,121.691851,KEE307023,0,
KEE307024,瑪陵國小,25.11094,121.688963,KEE307024,0,
KEE307025,瑪陵國小,25.110978,121.688985,KEE307025,0,
KEE307026,青嵐橋(金明昌鹿園),25.1115,121.687984,KEE307026,0,
KEE307027,翠谷橋,25.11088,121.686745,KEE307027,0,
KEE307028,翠谷橋,25.110868,121.686821,KEE307028,0,
KEE307029,大華三路10號,25.112397,121.684411,KEE307029,0,
KEE307030,大華三路10號,25.112074,121.684832,KEE307030,0,
KEE307031,向揚工業,25.112131,121.68471,KEE307031,0,
KEE307032,向揚工業,25.113483,121.682431,KEE307032,0,
KEE307033,長潭(焦炭窯),25.113411,121.682431,KEE307033,0,
KEE307034,長潭(焦炭窯),25.117541,121.680651,KEE307034,0,
KEE307035,茶花園,25.117528,121.680665,KEE307035,0,
KEE307036,茶花園,25.12174,121.680076,KEE307036,0,
KEE307045,鯉魚潭,25.121175,121.681176,KEE307045,0,
KEE307046,鯉魚潭,25.122868,121.679385,KEE307046,0,
KEE307047,仙洞湖,25.122871,121.679448,KEE307047,0,
KEE307048,仙洞湖,25.124471,121.67959,KEE307048,0,
KEE307049,福德宮(遊客服務中心),25.124965,121.679486,KEE307049,0,
KEE307053,福德宮(遊客服務中心),25.124978,121.679436,KEE307053,0,
KEE307054,武玄宮,25.127131,121.678181,KEE307054,0,
KEE307055,武玄宮,25.127191,121.678233,KEE307055,0,
KEE307056,瑪西里民活動中心,25.128571,121.677541,KEE307056,0,
KEE307057,瑪西里民活動中心,25.128665,121.677593,KEE307057,0,
KEE307058,大華三路95號,25.130193,121.675416,KEE307058,0,
KEE307059,大華三路95號,25.13026,121.675403,KEE307059,0,
KEE307060,瑪陵,25.130835,121.673893,KEE307060,0,
KEE307061,瑪陵,25.130825,121.674046,KEE307061,0,
KEE307062,大華三路100號(親水公園),25.133215,121.67369,KEE307062,0,
KEE307063,面桶寮,25.133958,121.673726,KEE307063,0,
KEE307064,面桶寮,25.133966,121.673586,KEE307064,0,
KEE307065,苓蘭休閒農場,25.141475,121.667698,KEE307065,0,
KEE307077,武聖街144號,25.159593,121.697201,KEE307077,0,
KEE307078,內寮社區,25.1585,121.696466,KEE307078,0,
KEE307080,內寮社區,25.158586,121.696613,KEE307080,0,
KEE307081,瑪東里,25.115476,121.692682,KEE307081,0,
KEE307082,瑪東里,25.11554,121.69262,KEE307082,0,
KEE307083,大同街,25.11678,121.695513,KEE307083,0,
KEE307084,大同街,25.116838,121.695525,KEE307084,0,
KEE307085,自強路口,25.116691,121.6987,KEE307085,0,
KEE307086,自強路口,25.116716,121.698801,KEE307086,0,
KEE307087,舊里民大會堂,25.11885,121.69884,KEE307087,0,
KEE307088,盧厝,25.12167,121.698495,KEE307088,0,
KEE307089,盧厝,25.121723,121.698495,KEE307089,0,
KEE307090,摩天嶺,25.124303,121.699646,KEE307090,0,
KEE307091,摩天嶺,25.124158,121.699621,KEE307091,0,
KEE307092,瑪東農村社區公園,25.125536,121.69788,KEE307092,0,
KEE307093,瑪東農村社區公園,25.125616,121.697753,KEE307093,0,
KEE307094,瑪新橋,25.127681,121.696856,KEE307094,0,
KEE307095,瑪新橋,25.1277,121.696741,KEE307095,0,
KEE307096,大同街52號,25.13074,121.693605,KEE307096,0,
KEE307097,大同街52號,25.130736,121.693681,KEE307097,0,
KEE307102,武聖街144號,25.159483,121.697266,KEE307102,0,
KEE307111,大同街47號,25.132576,121.689381,KEE307111,0,
KEE307112,大同街47號,25.132576,121.688998,KEE307112,0,
KEE307113,陳厝,25.13325,121.6866,KEE307113,0,
KEE307114,陳厝,25.13322,121.68679,KEE307114,0,
KEE307115,大同街59-1號,25.134412,121.686604,KEE307115,0,
KEE307116,大同街59-1號,25.134376,121.686486,KEE307116,0,
KEE307117,大同街63號,25.136028,121.681266,KEE307117,0,
KEE307118,大同街63號,25.136008,121.68124,KEE307118,0,
KEE307119,大同街60號,25.139316,121.681316,KEE307119,0,
KEE307121,監理站,25.087486,121.697753,KEE307121,0,
KEE307122,百六福二街口,25.085233,121.695781,KEE307122,0,
KEE307123,百六福二街口,25.085123,121.695756,KEE307123,0,
KEE307124,堵南國小,25.0845,121.691966,KEE307124,0,
KEE307125,堵南國小,25.0844,121.692261,KEE307125,0,
KEE307126,內十四坑,25.114049,121.653953,KEE307126,0,
KEE307127,靜修寺,25.114683,121.65503,KEE307127,0,
KEE307128,石公潭,25.116479,121.659759,KEE307128,0,
KEE307129,石公潭,25.11643,121.659698,KEE307129,0,
KEE307130,鹿寮,25.11316,121.664485,KEE307130,0,
KEE307131,鹿寮,25.113276,121.66432,KEE307131,0,
KEE307132,華新二路,25.111711,121.664383,KEE307132,0,
KEE307133,華新二路,25.112041,121.664153,KEE307133,0,
KEE307134,友二里民大會堂,25.10853,121.665692,KEE307134,0,
KEE307135,復興國小,25.106882,121.665401,KEE307135,0,
KEE307136,復興國小,25.107022,121.665378,KEE307136,0,
KEE307137,一坑,25.103071,121.665351,KEE307137,0,
KEE307138,一坑,25.102964,121.665321,KEE307138,0,
KEE307139,友益橋,25.1,121.666496,KEE307139,0,
KEE307140,友益橋,25.100019,121.666404,KEE307140,0,
KEE307141,鴛鴦潭,25.098248,121.666341,KEE307141,0,
KEE307142,鴛鴦潭,25.098052,121.666191,KEE307142,0,
KEE307143,友愛橋,25.09583,121.666661,KEE307143,0,
KEE307144,友愛橋,25.0957,121.666585,KEE307144,0,
KEE307145,友諒橋,25.09386,121.669246,KEE307145,0,
KEE307160,堵南里,25.08227,121.68421,KEE307160,0,
KEE307163,堵南里,25.082386,121.68517,KEE307163,0,
KEE307168,堵南加油站,25.082275,121.685555,KEE307168,0,
KEE307169,堵南加油站,25.08239,121.685555,KEE307169,0,
KEE307171,特殊教育學校,25.082438,121.687243,KEE307171,0,
KEE307172,特殊教育學校,25.082633,121.687475,KEE307172,0,
KEE307173,溪頭街口,25.082891,121.688755,KEE307173,0,
KEE307174,溪頭街口,25.082961,121.6886,KEE307174,0,
KEE307175,大德路,25.084191,121.690956,KEE307175,0,
KEE307176,大德路,25.084336,121.690853,KEE307176,0,
KEE307177,福一街口,25.081918,121.694273,KEE307177,0,
KEE307178,水漾會館,25.086571,121.693591,KEE307178,0,
KEE307179,福二街口,25.0819,121.696588,KEE307179,0,
KEE307180,百福宮,25.082613,121.695128,KEE307180,0,
KEE307181,百三街口,25.081935,121.695628,KEE307181,0,
KEE307182,百六街口,25.086439,121.697929,KEE307182,0,
KEE307183,福三街口,25.081858,121.698238,KEE307183,0,
KEE307196,長安社區,25.075008,121.695973,KEE307196,0,
KEE307197,長安社區,25.075166,121.69525,KEE307197,0,
KEE307198,長安里民會堂,25.076871,121.692695,KEE307198,0,
KEE307199,長安里民會堂,25.076871,121.692695,KEE307199,0,
KEE307200,長安街口,25.077516,121.6899,KEE307200,0,
KEE307201,長安街口,25.077468,121.690111,KEE307201,0,
KEE307202,明德三路口(北五堵),25.0768,121.688233,KEE307202,0,
KEE307203,明德三路口(北五堵),25.0774,121.68895,KEE307203,0,
KEE307204,友一里民大會堂,25.09208,121.669059,KEE307204,0,
KEE307205,綠葉山莊,25.090446,121.667845,KEE307205,0,
KEE307206,綠葉山莊,25.090567,121.667835,KEE307206,0,
KEE307207,土地廟,25.088918,121.667236,KEE307207,0,
KEE307208,友一社區發展協會,25.087992,121.66823,KEE307208,0,
KEE307209,友一社區發展協會,25.087933,121.668112,KEE307209,0,
KEE307210,友一里,25.086223,121.672421,KEE307210,0,
KEE307211,友一里,25.086196,121.67228,KEE307211,0,
KEE307212,麗景天下社區,25.085094,121.673837,KEE307212,0,
KEE307213,麗景天下社區,25.084918,121.673877,KEE307213,0,
KEE307214,天使宮,25.08669,121.676491,KEE307214,0,
KEE307215,天使宮,25.086496,121.676478,KEE307215,0,
KEE307216,真聖堂,25.084488,121.683353,KEE307216,0,
KEE307217,真聖堂,25.084455,121.683198,KEE307217,0,
KEE307218,百福火車站(大德路),25.078429,121.692393,KEE307218,0,
KEE307247,三和路,25.097164,121.670722,KEE307247,0,
KEE307248,三和路,25.097126,121.670846,KEE307248,0,
KEE307249,百福火車站(大德路),25.078325,121.692299,KEE307249,0,
NWT10353,管理中心,25.063771,121.457635,NWT10353,0,
NWT10354,標準廠房,25.06496,121.45596,NWT10354,0,
NWT10355,五權三五工路口,25.065315,121.453673,NWT10355,0,
NWT10356,勞工活動中心,25.06236578,121.450092,NWT10356,0,
NWT10357,工商展覽中心,25.065092,121.449031,NWT10357,0,
NWT10358,世翔,25.06806606,121.4512933,NWT10358,0,
NWT10359,五權五工三路口,25.06899,121.45341,NWT10359,0,
NWT10360,吉祥大樓,25.068985,121.458692,NWT10360,0,
NWT10361,興化國小,25.0672,121.46218,NWT10361,0,
NWT10362,台貿二村,25.064412,121.465044,NWT10362,0,
NWT10363,新北大道化成路口,25.061164,121.465274,NWT10363,0,
NWT10364,新北大道中興路口,25.06141,121.46817,NWT10364,0,
NWT10365,新北大道中華路口,25.0613696251157,121.483061607875,NWT10365,0,
NWT10366,三重區公所(新北大道),25.061249,121.48857,NWT10366,0,
NWT10367,聯合醫院(三重院區),25.0612882442498,121.490767288608,NWT10367,0,
NWT10368,大同路口,25.061403,121.49493,NWT10368,0,
NWT10369,捷運台北橋站,25.063054,121.50044,NWT10369,0,
NWT10370,捷運民權西路站,25.0628480067,121.5178677888,NWT10370,0,
NWT10371,民權中山路口,25.06271419,121.5223009,NWT10371,0,
NWT10372,捷運中山國小站,25.06266873,121.5253813,NWT10372,0,
NWT10373,新興國中(新生),25.06100515,121.5274385,NWT10373,0,
NWT10374,聚盛里,25.05865,121.52563,NWT10374,0,
NWT10376,新興國中,25.06130893,121.5257163,NWT10376,0,
NWT10378,民權中山路口,25.06285356,121.5230024,NWT10378,0,
NWT10379,民權大龍街口,25.06309981,121.5165811,NWT10379,0,
NWT10380,捷運台北橋站,25.06321,121.500403,NWT10380,0,
NWT10382,天台廣場,25.061930885,121.496784994,NWT10382,0,
NWT10384,大同路口,25.0614913406773,121.494254721567,NWT10384,0,
NWT10386,聯合醫院(三重院區),25.06145,121.49077,NWT10386,0,
NWT10388,三重區公所(新北大道),25.061474,121.488152,NWT10388,0,
NWT10390,新北大道中華路口,25.061616,121.483074,NWT10390,0,
NWT10392,新北大道重光街口,25.0616455497332,121.466776101293,NWT10392,0,
NWT10394,台貿二村,25.064289,121.465158,NWT10394,0,
NWT10396,興化國小,25.06728,121.46219,NWT10396,0,
NWT10398,吉祥大樓,25.068174,121.460366,NWT10398,0,
NWT10400,五權五工三路口,25.06906,121.45303,NWT10400,0,
NWT10402,世翔,25.06808915,121.4511096,NWT10402,0,
NWT10404,工商展覽中心,25.06505486,121.4486908,NWT10404,0,
NWT10406,勞工活動中心,25.06215823,121.4501639,NWT10406,0,
NWT10408,五權三五工路口,25.065684,121.454236,NWT10408,0,
NWT10410,標準廠房,25.0649,121.45596,NWT10410,0,
NWT10412,管理中心,25.064069,121.456882,NWT10412,0,
NWT10418,龍華科技大學,25.017619,121.404559,NWT10418,0,
NWT10420,迴龍派出所,25.019057,121.40894,NWT10420,0,
NWT10422,捷運迴龍站,25.021617,121.411687,NWT10422,0,
NWT10424,丹鳳國小,25.0233425,121.41477,NWT10424,0,
NWT10426,雙鳳富國路口,25.025833,121.417618,NWT10426,0,
NWT10428,捷運丹鳳站,25.028741,121.422375,NWT10428,0,
NWT10430,三洋,25.03016,121.42685,NWT10430,0,
NWT10432,營盤口,25.031553,121.431382,NWT10432,0,
NWT10434,捷運輔大站,25.032612,121.435466,NWT10434,0,
NWT10436,盲人重建院,25.033904,121.442607,NWT10436,0,
NWT10438,海山里,25.034382,121.44483,NWT10438,0,
NWT10440,新泰路口,25.034987,121.447739,NWT10440,0,
NWT10442,捷運新莊站(新莊郵局),25.035445,121.449908,NWT10442,0,
NWT10444,保元宮,25.038242,121.459593,NWT10444,0,
NWT10446,頭前,25.041731,121.46516,NWT10446,0,
NWT10448,金陵女中,25.0427471,121.4665635,NWT10448,0,
NWT10450,中興街口,25.045403,121.469408,NWT10450,0,
NWT10452,五谷王廟,25.047009,121.473986,NWT10452,0,
NWT10454,重新大橋,25.05142477,121.4876744,NWT10454,0,
NWT10458,祖師廟(貴陽),25.0399728811606,121.502490233032,NWT10458,0,
NWT10460,貴陽街,25.03944952637,121.50582384788,NWT10460,0,
NWT10462,捷運西門站,25.0409980900087,121.508187414094,NWT10462,0,
NWT10464,博愛路,25.043262,121.511555,NWT10464,0,
NWT10466,臺北郵局(撫臺街洋樓),25.04605,121.51032,NWT10466,0,
NWT10468,中華路北站,25.0445846194834,121.508765096201,NWT10468,0,
NWT10470,西門市場(成都),25.042689544956,121.50665358531,NWT10470,0,
NWT10472,西門國小,25.043299072488,121.50400338161,NWT10472,0,
NWT10474,重新大橋,25.05174,121.487734,NWT10474,0,
NWT10476,五谷王廟,25.04728267,121.4740976,NWT10476,0,
NWT10478,中興街口,25.044972,121.468523,NWT10478,0,
NWT10480,金陵女中,25.043117,121.466676,NWT10480,0,
NWT10482,頭前,25.041063159,121.4636349,NWT10482,0,
NWT10484,寶慶路,25.0414915346214,121.509834083745,NWT10484,0,
NWT10486,大眾廟,25.03714826,121.4573883,NWT10486,0,
NWT10488,捷運新莊站(新莊郵局),25.035639,121.449807,NWT10488,0,
NWT10490,新泰路口,25.035329,121.44814,NWT10490,0,
NWT10492,海山里,25.034808,121.445934,NWT10492,0,
NWT10494,盲人重建院,25.03371663,121.440623,NWT10494,0,
NWT10496,捷運輔大站,25.032897,121.4359666,NWT10496,0,
NWT10498,營盤口,25.031456,121.43029,NWT10498,0,
NWT10500,三洋,25.030319,121.426759,NWT10500,0,
NWT10502,捷運丹鳳站,25.028858,121.422143,NWT10502,0,
NWT10503,雙鳳富國路口,25.025761,121.417289,NWT10503,0,
NWT10504,丹鳳國小,25.02359983,121.4146805,NWT10504,0,
NWT10505,捷運迴龍站,25.02188,121.41152,NWT10505,0,
NWT10506,迴龍派出所,25.019692,121.40912,NWT10506,0,
NWT10507,迴龍商場,25.018554,121.407086,NWT10507,0,
NWT10510,龍華科技大學,25.017619,121.404559,NWT10510,0,
NWT10511,迴龍派出所,25.019057,121.40894,NWT10511,0,
NWT10512,捷運迴龍站,25.021617,121.411687,NWT10512,0,
NWT10513,丹鳳國小,25.0233425,121.41477,NWT10513,0,
NWT10514,雙鳳富國路口,25.025833,121.417618,NWT10514,0,
NWT10515,捷運丹鳳站,25.028741,121.422375,NWT10515,0,
NWT10516,三洋,25.03016,121.42685,NWT10516,0,
NWT10517,營盤口,25.031553,121.431382,NWT10517,0,
NWT10518,捷運輔大站,25.032612,121.435466,NWT10518,0,
NWT10519,盲人重建院,25.033904,121.442607,NWT10519,0,
NWT10520,海山里,25.034382,121.44483,NWT10520,0,
NWT10521,新泰路口,25.034987,121.447739,NWT10521,0,
NWT10522,捷運新莊站(新莊郵局),25.035445,121.449908,NWT10522,0,
NWT10523,保元宮,25.038242,121.459593,NWT10523,0,
NWT10524,頭前,25.041731,121.46516,NWT10524,0,
NWT10525,金陵女中,25.0427471,121.4665635,NWT10525,0,
NWT10526,中興街口,25.045403,121.469408,NWT10526,0,
NWT10527,五谷王廟,25.047009,121.473986,NWT10527,0,
NWT10528,菜寮(重新路),25.057218,121.487921,NWT10528,0,
NWT10529,捷運菜寮站,25.05907329,121.4905425,NWT10529,0,
NWT10530,中山藝術公園,25.06043253,121.4925214,NWT10530,0,
NWT10531,大同路口,25.061403,121.49493,NWT10531,0,
NWT10532,捷運台北橋站,25.063054,121.50044,NWT10532,0,
NWT10533,捷運民權西路站,25.0628480067,121.5178677888,NWT10533,0,
NWT10534,台泥大樓(馬偕醫院),25.0608309862107,121.522776776113,NWT10534,0,
NWT10535,國賓飯店,25.05658228,121.5225384,NWT10535,0,
NWT10536,捷運中山站(志仁高中),25.052867,121.519866,NWT10536,0,
NWT10546,民權大龍街口,25.06309981,121.5165811,NWT10546,0,
NWT10547,捷運台北橋站,25.06321,121.500403,NWT10547,0,
NWT10548,天台廣場,25.061930885,121.496784994,NWT10548,0,
NWT10549,大同路口,25.0614913406773,121.494254721567,NWT10549,0,
NWT10550,中山藝術公園,25.060541,121.492298,NWT10550,0,
NWT10552,菜寮(重新路),25.05744645,121.4878276,NWT10552,0,
NWT10554,五谷王廟,25.04728267,121.4740976,NWT10554,0,
NWT10556,中興街口,25.044972,121.468523,NWT10556,0,
NWT10558,金陵女中,25.043117,121.466676,NWT10558,0,
NWT10560,頭前,25.041063159,121.4636349,NWT10560,0,
NWT10562,新莊國小,25.036727,121.456562,NWT10562,0,
NWT10564,大眾廟,25.03714826,121.4573883,NWT10564,0,
NWT10566,捷運新莊站(新莊郵局),25.035639,121.449807,NWT10566,0,
NWT10568,新泰路口,25.035329,121.44814,NWT10568,0,
NWT10570,海山里,25.034808,121.445934,NWT10570,0,
NWT10572,盲人重建院,25.03371663,121.440623,NWT10572,0,
NWT10574,捷運輔大站,25.032897,121.4359666,NWT10574,0,
NWT10576,營盤口,25.031456,121.43029,NWT10576,0,
NWT10578,三洋,25.030319,121.426759,NWT10578,0,
NWT10580,捷運丹鳳站,25.028858,121.422143,NWT10580,0,
NWT10582,雙鳳富國路口,25.025761,121.417289,NWT10582,0,
NWT10584,丹鳳國小,25.02359983,121.4146805,NWT10584,0,
NWT10586,捷運迴龍站,25.02188,121.41152,NWT10586,0,
NWT10588,迴龍派出所,25.019692,121.40912,NWT10588,0,
NWT10590,迴龍商場,25.018554,121.407086,NWT10590,0,
NWT110043,冷凍廠(懷德),25.030025,121.479456,NWT110043,0,
NWT110044,懷德街(懷德),25.03143554,121.478429,NWT110044,0,
NWT110045,江子翠,25.032535,121.476953,NWT110045,0,
NWT110046,江翠國小,25.032472,121.475313,NWT110046,0,
NWT110047,江翠國小(文化路),25.03163,121.47366,NWT110047,0,
NWT110048,雙十路,25.02918,121.47317,NWT110048,0,
NWT110049,大同街口,25.02667891,121.4762634,NWT110049,0,
NWT110050,永安公園,25.024164,121.477784,NWT110050,0,
NWT110051,翠華新村,25.02236217,121.4793882,NWT110051,0,
NWT110052,埔墘(三民路),25.017161,121.47911,NWT110052,0,
NWT110053,長壽里,25.014186,121.478906,NWT110053,0,
NWT110054,自來水公司,25.011846,121.478737,NWT110054,0,
NWT110055,松下電子,25.0086,121.47929,NWT110055,0,
NWT110056,積穗(員山路),25.00686,121.479635,NWT110056,0,
NWT110057,板橋監理站,25.005992,121.475774,NWT110057,0,
NWT110058,環球購物中心,25.00638,121.47349,NWT110058,0,
NWT110059,莒光路口,25.005926,121.471823,NWT110059,0,
NWT110060,德光路,25.003956,121.469691,NWT110060,0,
NWT110061,民德路口,25.002053,121.46875,NWT110061,0,
NWT110073,民德路口,25.00154,121.46895,NWT110073,0,
NWT110074,德光路,25.003839,121.469849,NWT110074,0,
NWT110075,莒光路口,25.00573,121.47206,NWT110075,0,
NWT110076,環球購物中心,25.00622954,121.4730341,NWT110076,0,
NWT110077,板橋監理站,25.005765,121.47597,NWT110077,0,
NWT110078,積穗,25.005712,121.478451,NWT110078,0,
NWT110079,松下電子,25.008669,121.47932,NWT110079,0,
NWT110080,自來水公司,25.0127,121.479068,NWT110080,0,
NWT110081,長壽里,25.015381,121.479287,NWT110081,0,
NWT110082,埔墘(三民路),25.01784,121.479351,NWT110082,0,
NWT110083,翠華新村,25.022082,121.47961,NWT110083,0,
NWT110084,永安公園,25.024089,121.478263,NWT110084,0,
NWT110085,大同街口,25.025965,121.476954,NWT110085,0,
NWT110086,雙十路,25.02932746,121.4733352,NWT110086,0,
NWT110087,捷運江子翠站,25.03116,121.47362,NWT110087,0,
NWT110088,江翠國小,25.032101,121.475567,NWT110088,0,
NWT110089,懷德街(文聖),25.03015,121.47731,NWT110089,0,
NWT110090,冷凍廠(文聖),25.02824,121.47837,NWT110090,0,
NWT110091,音樂公園,25.02629,121.4805,NWT110091,0,
NWT111280,北區養護工程分局,25.005489,121.420408,NWT111280,0,
NWT111281,樹林運動中心,25.003803,121.422791,NWT111281,0,
NWT111282,中正大安路口,25.001585,121.424544,NWT111282,0,
NWT111285,光華商職,25.001745,121.453807,NWT111285,0,
NWT111286,板橋夜市(南雅南路),25.006681,121.4563695,NWT111286,0,
NWT111287,捷運府中站(府中路),25.009036,121.458454,NWT111287,0,
NWT111288,萬坪公園,25.013298,121.460871,NWT111288,0,
NWT111289,新北板橋公車站,25.012817,121.462239,NWT111289,0,
NWT111290,捷運府中站,25.009314,121.459946,NWT111290,0,
NWT111291,館前西路口,25.006604,121.457588,NWT111291,0,
NWT111292,板橋夜市(縣民大道),25.005009,121.4561457,NWT111292,0,
NWT111293,光華商職,25.00238,121.453862,NWT111293,0,
NWT111297,中正大安路口,25.001537,121.4249071,NWT111297,0,
NWT111298,樹林運動中心,25.003688,121.423295,NWT111298,0,
NWT111299,北區養護工程分局,25.005656,121.420538,NWT111299,0,
NWT111300,臺北區監理所,25.009107,121.41855,NWT111300,0,
NWT113112,深坑國小,25.0033150747729,121.616794076485,NWT113112,0,
NWT113113,東南科技大學,25.0027777194038,121.603712640729,NWT113113,0,
NWT113114,萬順寮,25.003972883576,121.600780470525,NWT113114,0,
NWT113115,草地尾,25.00478613,121.5983666,NWT113115,0,
NWT113116,富德里,25.0042464092937,121.595983977281,NWT113116,0,
NWT113117,文和橋,25.002427887609,121.595112588336,NWT113117,0,
NWT113118,富德,25.00014907,121.5904329,NWT113118,0,
NWT113119,象頭埔,25.00192869,121.5884496,NWT113119,0,
NWT113120,萬福橋,25.0031479361546,121.585066207329,NWT113120,0,
NWT113121,石壁坑,25.00292,121.58338,NWT113121,0,
NWT113122,風動石,25.0011663,121.5792515,NWT113122,0,
NWT113160,風動石,25.0010545644892,121.579341481903,NWT113160,0,
NWT113161,石壁坑,25.00261,121.58301,NWT113161,0,
NWT113162,萬福橋,25.00297132,121.5846248,NWT113162,0,
NWT113163,象頭埔,25.00178212,121.588304,NWT113163,0,
NWT113165,文和橋,25.00225632,121.5951402,NWT113165,0,
NWT113166,富德里,25.004447,121.596216,NWT113166,0,
NWT113167,草地尾,25.00482,121.59797,NWT113167,0,
NWT113168,萬順寮,25.0038538453324,121.600788292728,NWT113168,0,
NWT113169,東南科技大學,25.00231,121.604254,NWT113169,0,
NWT113170,台新工廠,25.00169182,121.6060092,NWT113170,0,
NWT113171,深坑,25.0011405921787,121.612128615622,NWT113171,0,
NWT113172,深坑區公所,25.0024231544723,121.614846681896,NWT113172,0,
NWT113173,深坑國小,25.0030922336576,121.616570605411,NWT113173,0,
NWT113174,變電所,25.0040712956543,121.619062477439,NWT113174,0,
NWT113175,草地頭,25.0049371027771,121.622497028375,NWT113175,0,
NWT113176,深美橋,25.0055271968746,121.624020061467,NWT113176,0,
NWT113177,翠谷山莊,25.00752111,121.6274884,NWT113177,0,
NWT113178,烏月路口,25.005201,121.6305868,NWT113178,0,
NWT113179,文山路一段31巷,25.003953,121.62934,NWT113179,0,
NWT113180,深坑消防隊,25.002557,121.6274888,NWT113180,0,
NWT113181,昇高坑口,25.000673,121.6232469,NWT113181,0,
NWT113689,捷運淡水站,25.16841,121.44588,NWT113689,0,
NWT113690,永樂巷口(中山市場),25.17060594,121.4430187,NWT113690,0,
NWT113691,重建街口,25.17277822,121.439321,NWT113691,0,
NWT113692,華南銀行,25.16945776,121.4443313,NWT113692,0,
NWT113693,淡水圖書館,25.173078,121.437784,NWT113693,0,
NWT113694,小白宮(淡水分局),25.173459,121.435833,NWT113694,0,
NWT113695,紅毛城(真理大學),25.17413801,121.4343127,NWT113695,0,
NWT113696,獸醫研究所,25.17536,121.43083,NWT113696,0,
NWT113697,滬尾砲台停車場,25.175979,121.428409,NWT113697,0,
NWT113698,滬尾砲台(雲門劇場),25.178458,121.4293865,NWT113698,0,
NWT113717,滬尾砲台停車場,25.175969,121.428305,NWT113717,0,
NWT113719,獸醫研究所,25.174897,121.431339,NWT113719,0,
NWT113720,紅毛城(真理大學),25.1743,121.43328,NWT113720,0,
NWT113721,捷運淡水站,25.167281,121.4467018,NWT113721,0,
NWT113722,小白宮(淡水分局),25.173232,121.435832,NWT113722,0,
NWT113723,淡水圖書館,25.172781,121.438273,NWT113723,0,
NWT113724,重建街口,25.1724,121.43977,NWT113724,0,
NWT113725,永樂巷口(中山市場),25.17047718,121.4426772,NWT113725,0,
NWT113726,山腳溪橋,25.06359,121.42295,NWT113726,0,
NWT113727,泰山國中,25.064055,121.42611,NWT113727,0,
NWT113728,憲訓中心,25.063667,121.428533,NWT113728,0,
NWT113729,泰山國小,25.06209478,121.4320399,NWT113729,0,
NWT113730,泰山郵局,25.063193,121.43342,NWT113730,0,
NWT113731,明志和平路口,25.064906,121.433605,NWT113731,0,
NWT113732,大窠橋,25.06721,121.43438,NWT113732,0,
NWT113733,遠東物流,25.069564,121.435546,NWT113733,0,
NWT113734,德音國小,25.07179,121.43576,NWT113734,0,
NWT113735,明日世界,25.074753,121.435263,NWT113735,0,
NWT113736,憲兵學校,25.07686492,121.4350936,NWT113736,0,
NWT113737,蓬萊坑,25.080067,121.436601,NWT113737,0,
NWT113738,五股國小,25.082438,121.437555,NWT113738,0,
NWT113739,五股服務社,25.084332,121.43843,NWT113739,0,
NWT113740,洲仔橋,25.08586,121.439434,NWT113740,0,
NWT113741,成泰路三段,25.087955,121.441631,NWT113741,0,
NWT113742,坑口,25.08947,121.443279,NWT113742,0,
NWT113743,洲仔,25.091365,121.44495,NWT113743,0,
NWT113744,成功里,25.092835,121.446157,NWT113744,0,
NWT113745,西雲寺,25.095319,121.448341,NWT113745,0,
NWT113746,五府千歲,25.098031,121.450209,NWT113746,0,
NWT113747,成州國小,25.099578,121.451025,NWT113747,0,
NWT113748,五股郵局,25.101523,121.451935,NWT113748,0,
NWT113749,新興公寓,25.1028902266331,121.452554712702,NWT113749,0,
NWT113750,成德公園,25.10438,121.4528962,NWT113750,0,
NWT113751,成泰路口,25.107049,121.4537424,NWT113751,0,
NWT113752,獅仔頭,25.109396,121.455757,NWT113752,0,
NWT113753,外獅頭,25.118043,121.457038,NWT113753,0,
NWT113754,關渡大橋一,25.12037028,121.4560749,NWT113754,0,
NWT113755,關渡,25.12347,121.46505,NWT113755,0,
NWT113756,慈濟志業中心,25.123722,121.4715738,NWT113756,0,
NWT113757,捷運關渡站,25.125124,121.467024,NWT113757,0,
NWT113758,立功立德路口,25.12549,121.47105,NWT113758,0,
NWT113759,大愛電視台,25.123677,121.471449,NWT113759,0,
NWT113760,關渡,25.12377177,121.4648728,NWT113760,0,
NWT113761,關渡大橋一,25.12068115,121.455706,NWT113761,0,
NWT113762,外獅頭,25.117917,121.4568564,NWT113762,0,
NWT113763,獅仔頭,25.109566,121.4555484,NWT113763,0,
NWT113764,成泰路口,25.106927,121.4533012,NWT113764,0,
NWT113765,成德公園,25.10455902,121.452647,NWT113765,0,
NWT113766,新興公寓,25.10265,121.452299,NWT113766,0,
NWT113767,五股郵局,25.10107435,121.4515372,NWT113767,0,
NWT113768,成州國小,25.09954372,121.4507744,NWT113768,0,
NWT113769,五府千歲,25.098013,121.449986,NWT113769,0,
NWT113770,西雲寺,25.09536596,121.4480911,NWT113770,0,
NWT113771,成功里,25.09329,121.44624,NWT113771,0,
NWT113772,洲仔,25.091373,121.44472,NWT113772,0,
NWT113773,坑口,25.08890012,121.4421924,NWT113773,0,
NWT113774,成泰路三段,25.087479,121.44059,NWT113774,0,
NWT113775,洲仔橋,25.08606,121.43939,NWT113775,0,
NWT113776,五股服務社,25.083879,121.43805,NWT113776,0,
NWT113777,五股國小,25.082498,121.43736,NWT113777,0,
NWT113778,蓬萊坑,25.079785,121.436258,NWT113778,0,
NWT113779,憲兵學校,25.076625,121.435035,NWT113779,0,
NWT113780,明日世界,25.07430648,121.4351234,NWT113780,0,
NWT113781,德音國小,25.07182,121.43563,NWT113781,0,
NWT113782,遠東物流,25.06966085,121.4353791,NWT113782,0,
NWT113783,大窠橋,25.06761,121.43454,NWT113783,0,
NWT113784,明志和平路口,25.06526521,121.433433,NWT113784,0,
NWT113785,泰山郵局,25.06216,121.432904,NWT113785,0,
NWT113786,泰山國小,25.06237887,121.431808,NWT113786,0,
NWT113787,憲訓中心,25.063788,121.428621,NWT113787,0,
NWT113788,泰山國中,25.0642,121.42629,NWT113788,0,
NWT113789,山腳溪橋,25.06372522,121.4227125,NWT113789,0,
NWT114537,鄧公里,25.169193,121.4480999,NWT114537,0,
NWT114538,淡江柏園,25.169986,121.450727,NWT114538,0,
NWT114539,學府路口,25.171772,121.4503368,NWT114539,0,
NWT114540,淡江大學城,25.173253,121.450209,NWT114540,0,
NWT114541,淡江大學,25.174327,121.447573,NWT114541,0,
NWT114542,淡江大學城,25.173067,121.4503864,NWT114542,0,
NWT114543,文宏廣場,25.171023,121.451395,NWT114543,0,
NWT114544,淡江柏園,25.170154,121.45078,NWT114544,0,
NWT114545,鄧公里,25.169,121.4478578,NWT114545,0,
NWT114546,捷運淡水站,25.1674549071321,121.446540610778,NWT114546,0,
NWT114838,基隆市界(明德三路),25.075597,121.685307,NWT114838,0,
NWT114839,摩天鎮,25.074762,121.683273,NWT114839,0,
NWT114840,亞太科技園區,25.072605,121.682809,NWT114840,0,
NWT114841,保長坑,25.07129,121.67919,NWT114841,0,
NWT114842,保安里,25.073658,121.675147,NWT114842,0,
NWT114843,長安里,25.0763,121.67317,NWT114843,0,
NWT114844,崇義高中(五堵車站),25.07733,121.6676204,NWT114844,0,
NWT114845,國泰醫院,25.07167,121.66475,NWT114845,0,
NWT114846,汐止,25.0691766561076,121.661689061306,NWT114846,0,
NWT114847,汐止公園,25.067906,121.659997,NWT114847,0,
NWT114848,汐止國小,25.066335,121.654564,NWT114848,0,
NWT114849,汐科站北站,25.06486,121.652863,NWT114849,0,
NWT114850,遠東科技中心,25.063921,121.650598,NWT114850,0,
NWT114851,汐科站南站,25.0629554356458,121.647015298289,NWT114851,0,
NWT114852,昊天嶺,25.062079,121.644615,NWT114852,0,
NWT114853,聯合報總部,25.061,121.64195,NWT114853,0,
NWT114854,樟樹灣,25.059228075748,121.638152101611,NWT114854,0,
NWT114855,南樟樹灣,25.057679,121.634221,NWT114855,0,
NWT114856,天良電視台,25.0562484993939,121.632175626719,NWT114856,0,
NWT114857,橫科,25.05508,121.62132,NWT114857,0,
NWT114858,捷運南港展覽館站(南港路),25.0551425857593,121.617342075005,NWT114858,0,
NWT114859,南港展覽館,25.05534,121.6156,NWT114859,0,
NWT114860,南港軟體園區南站,25.05641711,121.6141291,NWT114860,0,
NWT114862,園區街,25.05914,121.61282,NWT114862,0,
NWT114863,三重里,25.0594983981219,121.610362134069,NWT114863,0,
NWT114864,育成高中,25.05902412,121.6093127,NWT114864,0,
NWT114865,南港高工(重陽),25.058039,121.605866,NWT114865,0,
NWT114866,東新國小,25.05766955,121.6021258,NWT114866,0,
NWT114867,中國電視公司,25.05684,121.59951,NWT114867,0,
NWT114868,南港分局(重陽),25.05548009,121.5960871,NWT114868,0,
NWT114869,南港高中,25.0530195,121.5949802,NWT114869,0,
NWT114870,捷運昆陽站,25.050346,121.593165,NWT114870,0,
NWT114871,陸軍後勤指揮部,25.04983,121.59077,NWT114871,0,
NWT114872,國華新村,25.04908468,121.5878431,NWT114872,0,
NWT114873,聯合醫院忠孝院區,25.0475212158758,121.584229738588,NWT114873,0,
NWT114874,捷運後山埤站(玉成),25.04508818,121.5829419,NWT114874,0,
NWT114875,香檳新村,25.04379262,121.5865086,NWT114875,0,
NWT114876,玉成公園(成福),25.042359,121.587113,NWT114876,0,
NWT114877,成福路口一,25.04111713,121.5880617,NWT114877,0,
NWT114878,成福宮,25.039097,121.5898,NWT114878,0,
NWT114879,南港花園社區二,25.0400314866247,121.591151872157,NWT114879,0,
NWT114880,南港花園社區一,25.041068,121.591596,NWT114880,0,
NWT114881,南港花園社區五,25.04004,121.5926,NWT114881,0,
NWT114882,南港花園社區四,25.039482,121.593565,NWT114882,0,
NWT114883,南港花園社區三,25.03895301,121.5926327,NWT114883,0,
NWT114884,成福宮,25.03836032,121.5904127,NWT114884,0,
NWT114885,成福路口一,25.04098779,121.5883563,NWT114885,0,
NWT114886,玉成公園(成福),25.04275161,121.5870046,NWT114886,0,
NWT114887,香檳新村,25.0439376,121.586704,NWT114887,0,
NWT114888,聯合醫院忠孝院區(成福),25.04568,121.586088,NWT114888,0,
NWT114889,捷運後山埤站(玉成),25.04521051,121.5829604,NWT114889,0,
NWT114890,聯合醫院忠孝院區,25.048227,121.585736,NWT114890,0,
NWT114891,國華新村,25.04894289,121.5880308,NWT114891,0,
NWT114892,陸軍後勤指揮部,25.04964,121.59096,NWT114892,0,
NWT114893,捷運昆陽站,25.0502182745934,121.593650837788,NWT114893,0,
NWT114894,南港高中,25.0529513842885,121.595233108141,NWT114894,0,
NWT114895,南港分局(重陽),25.055561,121.596717,NWT114895,0,
NWT114896,中國電視公司,25.05646,121.59918,NWT114896,0,
NWT114897,東新國小,25.05746843,121.6020404,NWT114897,0,
NWT114898,南港高工(重陽),25.058155,121.60707,NWT114898,0,
NWT114899,育成高中,25.0589236255379,121.609383731004,NWT114899,0,
NWT114901,園區街,25.05897,121.61241,NWT114901,0,
NWT114902,南港軟體園區北站,25.05859806,121.6140851,NWT114902,0,
NWT114903,南港軟體園區南站,25.05645046,121.613945,NWT114903,0,
NWT114904,捷運南港展覽館站(南港路),25.0548787451546,121.617965105741,NWT114904,0,
NWT114905,橫科,25.05483,121.62138,NWT114905,0,
NWT114906,富信飯店,25.055783,121.632071,NWT114906,0,
NWT114907,南樟樹灣,25.057726,121.635075,NWT114907,0,
NWT114908,樟樹灣,25.059015,121.638157,NWT114908,0,
NWT114909,聯合報總部,25.060698,121.641788,NWT114909,0,
NWT114910,昊天嶺,25.06217,121.6454,NWT114910,0,
NWT114911,汐科站南站,25.0628093007884,121.647218863307,NWT114911,0,
NWT114912,汐科站北站,25.06417,121.65221,NWT114912,0,
NWT114913,汐止國小,25.066251,121.654922,NWT114913,0,
NWT114914,汐止國中,25.067099,121.658766,NWT114914,0,
NWT114915,汐止,25.06908,121.66202,NWT114915,0,
NWT114916,國泰醫院,25.071621,121.664962,NWT114916,0,
NWT114917,崇義高中(五堵車站),25.076937,121.667579,NWT114917,0,
NWT114918,長安里,25.07602,121.67317,NWT114918,0,
NWT114919,保安里,25.07299875,121.6752456,NWT114919,0,
NWT114920,保長坑,25.071014,121.680164,NWT114920,0,
NWT114921,亞太科技園區,25.072745,121.683327,NWT114921,0,
NWT114922,基隆市界(明德三路),25.075408,121.685458,NWT114922,0,
NWT114982,鄉長路一段,25.07416824,121.6650401,NWT114982,0,
NWT114983,崇義高中(忠孝東路),25.0757709941611,121.666894790178,NWT114983,0,
NWT114984,橋東,25.073617,121.666124,NWT114984,0,
NWT114985,摩登家庭社區,25.0718638857203,121.665938786409,NWT114985,0,
NWT114986,汐止後車站,25.068761,121.664158,NWT114986,0,
NWT114987,秀峰高中(忠孝東路),25.066476,121.661871,NWT114987,0,
NWT114988,汐止行政中心,25.06478,121.65913,NWT114988,0,
NWT114989,汐止農會,25.063336,121.656,NWT114989,0,
NWT114990,連興街口,25.062102,121.652972,NWT114990,0,
NWT114991,東方科學園區,25.06145,121.64922,NWT114991,0,
NWT114992,遠東世界中心,25.060814,121.646153,NWT114992,0,
NWT114993,天良電視台,25.0562484993939,121.632175626719,NWT114993,0,
NWT114994,橫科,25.05508,121.62132,NWT114994,0,
NWT114995,捷運南港展覽館站(南港路),25.0551425857593,121.617342075005,NWT114995,0,
NWT114996,南港展覽館,25.05534,121.6156,NWT114996,0,
NWT114997,南港,25.0553944295881,121.613658744034,NWT114997,0,
NWT114998,南港高工(南港路),25.0549683149017,121.609776304165,NWT114998,0,
NWT114999,南港行政中心,25.0544113947875,121.606693480964,NWT114999,0,
NWT115000,台肥新村,25.05385654,121.6036135,NWT115000,0,
NWT115001,南港輪胎,25.0534257,121.6008055,NWT115001,0,
NWT115002,東明里/臺北流行音樂中心,25.0538003797196,121.598579867653,NWT115002,0,
NWT115003,土地公廟,25.0546,121.59552,NWT115003,0,
NWT115004,南港高中,25.0530195,121.5949802,NWT115004,0,
NWT115005,捷運昆陽站,25.050346,121.593165,NWT115005,0,
NWT115006,捷運昆陽站,25.0502182745934,121.593650837788,NWT115006,0,
NWT115007,南港高中,25.0529513842885,121.595233108141,NWT115007,0,
NWT115008,土地公廟,25.0543174926906,121.596292330392,NWT115008,0,
NWT115009,東明里/臺北流行音樂中心,25.0538414991689,121.598139533007,NWT115009,0,
NWT115010,南港輪胎,25.0533242413246,121.60075620256,NWT115010,0,
NWT115011,台肥新村,25.053655363078,121.603021736172,NWT115011,0,
NWT115012,南港行政中心,25.0543759163622,121.607081950596,NWT115012,0,
NWT115013,南港高工(南港路),25.0549611074532,121.610621161509,NWT115013,0,
NWT115014,南港,25.0551358,121.6136264,NWT115014,0,
NWT115015,捷運南港展覽館站(南港路),25.0548787451546,121.617965105741,NWT115015,0,
NWT115016,橫科,25.05483,121.62138,NWT115016,0,
NWT115017,富信飯店,25.055783,121.632071,NWT115017,0,
NWT115018,遠東世界中心,25.060656,121.646552,NWT115018,0,
NWT115019,東方科學園區,25.061077,121.648377,NWT115019,0,
NWT115020,連興街口,25.06234,121.65414,NWT115020,0,
NWT115021,汐止農會,25.063652,121.657339,NWT115021,0,
NWT115022,汐止行政中心,25.06458,121.6593,NWT115022,0,
NWT115023,秀峰高中(忠孝東路),25.066644,121.662214,NWT115023,0,
NWT115024,汐止後車站,25.068624,121.664157,NWT115024,0,
NWT115025,摩登家庭社區,25.07144,121.666069,NWT115025,0,
NWT115026,橋東,25.073527,121.666245,NWT115026,0,
NWT115027,崇義高中(忠孝東路),25.076035,121.66712,NWT115027,0,
NWT115028,鄉長路一段,25.074002,121.665182,NWT115028,0,
NWT121167,深坑區公所,25.002433,121.614578,NWT121167,0,
NWT121168,深坑,25.00129696,121.6121775,NWT121168,0,
NWT121169,深坑郵局,25.001078,121.610017,NWT121169,0,
NWT121172,台新工廠,25.00185175,121.6058128,NWT121172,0,
NWT121176,深坑郵局,25.00091326,121.609871,NWT121176,0,
NWT122004,捷運萬隆站,25.00138697,121.5392576,NWT122004,0,
NWT122005,武功國小(羅斯福),25.00327364,121.5387822,NWT122005,0,
NWT122006,師大分部,25.00761,121.53849,NWT122006,0,
NWT122007,捷運公館站,25.013993,121.535185,NWT122007,0,
NWT122008,台電大樓,25.018486,121.530566,NWT122008,0,
NWT122009,捷運台電大樓站,25.02092,121.52803,NWT122009,0,
NWT122010,羅斯福浦城街口,25.0223114690134,121.526500263267,NWT122010,0,
NWT122011,羅斯福金門街口,25.02410614,121.5246768,NWT122011,0,
NWT122012,捷運古亭站(羅斯福),25.02678,121.52269,NWT122012,0,
NWT122013,捷運古亭站(杭州),25.02886065,121.5219375,NWT122013,0,
NWT122014,潮州街口,25.03003392,121.5221853,NWT122014,0,
NWT122015,捷運中正紀念堂站(愛國),25.0337,121.51992,NWT122015,0,
NWT122016,一女中(公園),25.0368285357308,121.515136595156,NWT122016,0,
NWT122017,捷運台大醫院站,25.04192722,121.5163535,NWT122017,0,
NWT122018,臺北車站(公園),25.044096,121.51689,NWT122018,0,
NWT122019,臺北車站(青島),25.04484411,121.517704,NWT122019,0,
NWT122020,臺大醫院,25.04249755,121.5184144,NWT122020,0,
NWT122021,捷運中正紀念堂站(中山),25.03643,121.51673,NWT122021,0,
NWT122022,捷運中正紀念堂站(勞保局),25.03371811,121.5173064,NWT122022,0,
NWT122025,羅斯福金門街口,25.0242886,121.5243501,NWT122025,0,
NWT122026,羅斯福浦城街口,25.0224187553298,121.526085861859,NWT122026,0,
NWT122027,捷運台電大樓站,25.020027,121.528697,NWT122027,0,
NWT122028,台電大樓,25.017546,121.531379,NWT122028,0,
NWT122029,捷運公館站,25.014321,121.534722,NWT122029,0,
NWT122030,師大分部,25.0081406778406,121.538064047069,NWT122030,0,
NWT122031,武功國小(羅斯福),25.00341174,121.5384705,NWT122031,0,
NWT122032,捷運萬隆站,25.0018621,121.5387951,NWT122032,0,
NWT122240,重建街口,25.1724,121.43977,NWT122240,0,
NWT122241,永樂巷口(中山市場),25.17047718,121.4426772,NWT122241,0,
NWT122242,華南銀行,25.16945776,121.4443313,NWT122242,0,
NWT122243,捷運淡水站,25.167281,121.4467018,NWT122243,0,
NWT122244,捷運淡水站,25.168631,121.445482,NWT122244,0,
NWT122245,永樂巷口(中山市場),25.17060594,121.4430187,NWT122245,0,
NWT122246,重建街口,25.17277822,121.439321,NWT122246,0,
NWT122247,淡水新城,25.17433,121.4390297,NWT122247,0,
NWT122248,海景園中園,25.175529,121.439329,NWT122248,0,
NWT122249,農會新興分部,25.176495,121.4385393,NWT122249,0,
NWT122250,淡江中學,25.177405,121.438052,NWT122250,0,
NWT122251,真理大學,25.179191,121.436691,NWT122251,0,
NWT122252,新興福德宮,25.180373,121.43621,NWT122252,0,
NWT122253,高爾夫山莊,25.183075,121.4352268,NWT122253,0,
NWT122254,台北灣社區,25.185312,121.432072,NWT122254,0,
NWT122255,行忠宮,25.18571,121.4302211,NWT122255,0,
NWT122256,觀海社區,25.18695,121.42979,NWT122256,0,
NWT122257,歡喜天地,25.186755,121.431323,NWT122257,0,
NWT122258,星海別墅,25.186153,121.4353502,NWT122258,0,
NWT122259,濱海義山路口,25.189144,121.437894,NWT122259,0,
NWT122260,義山新市二路口,25.192467,121.438459,NWT122260,0,
NWT122266,鳳翔區,25.199545,121.430555,NWT122266,0,
NWT122377,名來新城,25.025519,121.455746,NWT122377,0,
NWT122378,聯合醫院板橋院區(龍泉街),25.0236,121.4585,NWT122378,0,
NWT122379,新埔國中,25.024605,121.460081,NWT122379,0,
NWT122380,新海路,25.026487,121.458899,NWT122380,0,
NWT122381,新海橋頭,25.02896,121.458495,NWT122381,0,
NWT122382,聯邦新城,25.030056,121.46054,NWT122382,0,
NWT122383,長江路口,25.03029,121.4638057,NWT122383,0,
NWT122384,大漢橋,25.027651,121.4651306,NWT122384,0,
NWT122385,捷運新埔站,25.023861,121.467161,NWT122385,0,
NWT122386,板橋花市,25.021831,121.468393,NWT122386,0,
NWT122387,民生路橋,25.017445,121.471608,NWT122387,0,
NWT122388,民生中山路口,25.013883,121.474598,NWT122388,0,
NWT122389,正隆廣場,25.012418,121.476104,NWT122389,0,
NWT122390,員山路口,25.011351,121.47769,NWT122390,0,
NWT122391,中和第二戶政,25.008836,121.4818708,NWT122391,0,
NWT122392,中正中山路口,25.005803,121.483864,NWT122392,0,
NWT122393,中原里,25.002146,121.484684,NWT122393,0,
NWT122394,平河里,25.001049,121.484704,NWT122394,0,
NWT122410,平河里,25.000556,121.485231,NWT122410,0,
NWT122411,中原里,25.00316,121.4849,NWT122411,0,
NWT122412,中正中山路口,25.006489,121.483946,NWT122412,0,
NWT122413,中和戶政(員山辦事處),25.010313,121.480742,NWT122413,0,
NWT122414,員山路口,25.010672,121.4798986,NWT122414,0,
NWT122415,正隆廣場,25.01203424,121.4771431,NWT122415,0,
NWT122416,憲兵隊,25.013521,121.475491,NWT122416,0,
NWT122417,民生中山路口,25.01501499,121.4740357,NWT122417,0,
NWT122418,玉光里,25.01663,121.47289,NWT122418,0,
NWT122419,民生路橋,25.01795,121.47202,NWT122419,0,
NWT122420,板橋花市,25.021691,121.469272,NWT122420,0,
NWT122421,捷運新埔民生站,25.026048,121.466864,NWT122421,0,
NWT122422,大漢橋,25.027602,121.466063,NWT122422,0,
NWT122424,聯邦新城,25.03027,121.460757,NWT122424,0,
NWT122425,新海橋頭,25.02899498,121.4581913,NWT122425,0,
NWT122426,新海路,25.0266239,121.4585827,NWT122426,0,
NWT122427,新埔國中,25.025098,121.459576,NWT122427,0,
NWT122428,聯合醫院(板橋院區),25.023188,121.458487,NWT122428,0,
NWT122429,板橋國民運動中心,25.022638,121.457361,NWT122429,0,
NWT122495,華泰新城,25.000374,121.509133,NWT122495,0,
NWT122496,捷運永安市場站,25.002402,121.51094,NWT122496,0,
NWT122497,永安市場(永貞路),25.003661,121.513414,NWT122497,0,
NWT122498,823紀念公園,25.00191,121.51494,NWT122498,0,
NWT122499,得和路一,25.00009,121.51597,NWT122499,0,
NWT122500,得和路,25.000124,121.518434,NWT122500,0,
NWT122508,秀朗國小,25.00002,121.5208,NWT122508,0,
NWT122509,得和路,25.000302,121.518277,NWT122509,0,
NWT122510,得和路一,25.000242,121.515972,NWT122510,0,
NWT122511,823紀念公園,25.00190917,121.5151052,NWT122511,0,
NWT122512,永安市場(永貞路),25.00417,121.51284,NWT122512,0,
NWT122513,捷運永安市場站,25.002521,121.510832,NWT122513,0,
NWT122514,華泰新城,25.000533,121.509035,NWT122514,0,
NWT123459,楓子林路口,25.00877,121.6422517,NWT123459,0,
NWT123460,烏月路口,25.005201,121.6305868,NWT123460,0,
NWT123461,深坑消防隊,25.002557,121.6274888,NWT123461,0,
NWT123462,昇高坑口,25.000673,121.6232469,NWT123462,0,
NWT123477,昇高坑口,25.000387,121.623241,NWT123477,0,
NWT123478,深坑消防隊,25.00225,121.627544,NWT123478,0,
NWT123479,烏月路口,25.0051,121.630868,NWT123479,0,
NWT123480,楓子林路口,25.008547,121.6423912,NWT123480,0,
NWT123504,板橋花市,25.021691,121.469272,NWT123504,0,
NWT123505,捷運新埔站,25.023861,121.467161,NWT123505,0,
NWT123506,致理科技大學,25.020964,121.466622,NWT123506,0,
NWT123507,中山國中,25.019,121.465,NWT123507,0,
NWT123508,板橋車站(文化路),25.016025,121.462646,NWT123508,0,
NWT123509,萬坪公園,25.01352,121.460677,NWT123509,0,
NWT123511,萬坪公園,25.013298,121.460871,NWT123511,0,
NWT123512,板橋車站(文化路),25.015838,121.462964,NWT123512,0,
NWT123513,中山國中,25.018614,121.465129,NWT123513,0,
NWT123514,致理科技大學,25.02096,121.46695,NWT123514,0,
NWT123515,板橋花市,25.021831,121.468393,NWT123515,0,
NWT123710,蘆洲總站,25.089056,121.465804,NWT123710,0,
NWT123711,捷運蘆洲站,25.09148696,121.4638568,NWT123711,0,
NWT123712,長榮路,25.09231282,121.4603296,NWT123712,0,
NWT123713,永平市場,25.090164,121.459433,NWT123713,0,
NWT123714,永樂街,25.08836259,121.458711,NWT123714,0,
NWT123715,長安街,25.08798117,121.4572506,NWT123715,0,
NWT123716,成功國小,25.08625089,121.4573852,NWT123716,0,
NWT123717,永康公園,25.084758,121.458052,NWT123717,0,
NWT123718,長安街一,25.08279255,121.4593921,NWT123718,0,
NWT123719,忠義廟,25.08115346,121.4611032,NWT123719,0,
NWT123720,延平里,25.07961424,121.4631595,NWT123720,0,
NWT123721,九芎街,25.07935,121.465375,NWT123721,0,
NWT123722,九芎廟,25.07899554,121.4665749,NWT123722,0,
NWT123723,九芎街口,25.07848,121.46855,NWT123723,0,
NWT123724,民生街口,25.079466,121.471915,NWT123724,0,
NWT123725,中山一路,25.080632,121.473612,NWT123725,0,
NWT123726,溪墘,25.08152373,121.4767899,NWT123726,0,
NWT123727,捷運徐匯中學站(集賢路),25.082575,121.48065,NWT123727,0,
NWT123728,尼加拉瓜公園,25.08392,121.48116,NWT123728,0,
NWT123729,集賢路,25.086512,121.48278,NWT123729,0,
NWT123731,分子尾,25.08686,121.48814,NWT123731,0,
NWT123732,新北高中,25.087666,121.49,NWT123732,0,
NWT123733,五華國小,25.087666,121.493229,NWT123733,0,
NWT123734,重陽橋,25.0862710146474,121.508399869161,NWT123734,0,
NWT123735,葫蘆寺(葫蘆里),25.085288548110366,121.50958853792532,NWT123735,0,
NWT123736,葫蘆堵市場,25.08307587,121.5100276,NWT123736,0,
NWT123737,海光新村,25.08132113,121.5103891,NWT123737,0,
NWT123738,社子消防分隊,25.07952198,121.5109944,NWT123738,0,
NWT123739,污水處理廠,25.07605,121.5118,NWT123739,0,
NWT123740,老師里,25.07205633,121.5115542,NWT123740,0,
NWT123741,酒泉重慶路口,25.07198581,121.5143475,NWT123741,0,
NWT123742,大龍峒保安宮,25.07195442,121.5154577,NWT123742,0,
NWT123743,庫倫街,25.07188056,121.5180213,NWT123743,0,
NWT123744,庫倫街口,25.07106623,121.5183341,NWT123744,0,
NWT123745,民族承德路口,25.06788969,121.5182324,NWT123745,0,
NWT123746,大同國小,25.06487427,121.5181,NWT123746,0,
NWT123747,民權中山路口,25.06271419,121.5223009,NWT123747,0,
NWT123748,新興國中,25.06108573,121.5255106,NWT123748,0,
NWT123749,聚盛里,25.05883,121.52549,NWT123749,0,
NWT123750,華泰飯店,25.05814,121.52445,NWT123750,0,
NWT123751,馬偕醫院,25.05785889251285,121.5213624120506,NWT123751,0,
NWT123752,捷運雙連站,25.0575481163977,121.519034332355,NWT123752,0,
NWT123753,靜修女中,25.05716475,121.5149159,NWT123753,0,
NWT123754,朝陽公園(鈕釦街),25.055504,121.514022,NWT123754,0,
NWT123755,圓環(南京),25.053651217399,121.515705430802,NWT123755,0,
NWT123756,臺北車站(承德),25.05073509,121.5167729,NWT123756,0,
NWT123757,聯合醫院中興院區(西寧),25.05126,121.5084,NWT123757,0,
NWT123758,南京西寧路口,25.054005,121.508817,NWT123758,0,
NWT123759,民生西寧路口,25.05638868,121.5090487,NWT123759,0,
NWT123760,迪化街,25.05695365,121.5113363,NWT123760,0,
NWT123761,靜修女中,25.057115,121.515066,NWT123761,0,
NWT123762,雙連市場,25.0570425,121.51644,NWT123762,0,
NWT123763,捷運雙連站,25.057346,121.518782,NWT123763,0,
NWT123764,馬偕醫院,25.05773178,121.5215461,NWT123764,0,
NWT123765,華泰飯店,25.05794,121.52482,NWT123765,0,
NWT123766,聚盛里,25.05865,121.52563,NWT123766,0,
NWT123767,新興國中,25.06130893,121.5257163,NWT123767,0,
NWT123768,民權中山路口,25.06285356,121.5230024,NWT123768,0,
NWT123769,捷運民權西路站,25.063062,121.519192,NWT123769,0,
NWT123770,防癆協會,25.06357,121.51846,NWT123770,0,
NWT123772,大同國小,25.06632905,121.5185171,NWT123772,0,
NWT123773,民族承德路口,25.06894017,121.5185487,NWT123773,0,
NWT123774,庫倫街,25.07201334,121.5176838,NWT123774,0,
NWT123775,大龍峒保安宮,25.07209068,121.515621,NWT123775,0,
NWT123776,酒泉重慶路口,25.072042,121.514591,NWT123776,0,
NWT123777,酒泉街,25.07218551,121.5135209,NWT123777,0,
NWT123778,老師里,25.0721839786533,121.511508049849,NWT123778,0,
NWT123779,污水處理廠,25.07557274,121.5118974,NWT123779,0,
NWT123780,社子消防分隊,25.07941175,121.5112234,NWT123780,0,
NWT123781,海光新村,25.08087468,121.5106914,NWT123781,0,
NWT123782,葫蘆堵市場,25.082923,121.5102394,NWT123782,0,
NWT123783,重陽橋,25.0867169999545,121.508523654187,NWT123783,0,
NWT123784,五華國小,25.08862,121.49249,NWT123784,0,
NWT123785,新北高中,25.087346,121.489294,NWT123785,0,
NWT123786,分子尾,25.08727296,121.4879548,NWT123786,0,
NWT123787,五華街口,25.088503,121.484541,NWT123787,0,
NWT123788,集賢路,25.087002,121.48288,NWT123788,0,
NWT123789,尼加拉瓜公園,25.08402005,121.4808989,NWT123789,0,
NWT123790,捷運徐匯中學站(集賢路),25.08181,121.47994,NWT123790,0,
NWT123791,民和公寓,25.0810914736106,121.4791180235,NWT123791,0,
NWT123792,溪墘,25.08167,121.47682,NWT123792,0,
NWT123793,中山一路,25.080837,121.47348,NWT123793,0,
NWT123794,民生街口,25.07961,121.47182,NWT123794,0,
NWT123795,九芎街口,25.078631,121.468493,NWT123795,0,
NWT123796,九芎廟,25.079227,121.466562,NWT123796,0,
NWT123797,九芎街,25.07899,121.46489,NWT123797,0,
NWT123798,延平里,25.0797309,121.4632078,NWT123798,0,
NWT123799,忠義廟,25.081292,121.461196,NWT123799,0,
NWT123800,長安街一,25.08286,121.45954,NWT123800,0,
NWT123801,永康公園,25.08487762,121.4581955,NWT123801,0,
NWT123802,成功國小,25.08631773,121.4575421,NWT123802,0,
NWT123803,長安街,25.08775826,121.4573378,NWT123803,0,
NWT123804,永樂街,25.088157,121.458516,NWT123804,0,
NWT123805,永平市場,25.0902768,121.4597036,NWT123805,0,
NWT123806,長榮路,25.0923306,121.4606387,NWT123806,0,
NWT123807,捷運蘆洲站,25.091505,121.463227,NWT123807,0,
NWT124085,後站商圈,25.0072766153747,121.461043262981,NWT124085,0,
NWT124087,民族區運路口,25.00839,121.46584,NWT124087,0,
NWT124088,海山高中,25.00982,121.470184,NWT124088,0,
NWT124089,第一運動場,25.011323,121.468275,NWT124089,0,
NWT124090,新北市政府(新府路),25.012043,121.464544,NWT124090,0,
NWT124091,新北板橋公車站,25.012817,121.462239,NWT124091,0,
NWT124092,新北市政府(新府路),25.0118568,121.4643742,NWT124092,0,
NWT124096,後站商圈,25.0081,121.459999,NWT124096,0,
NWT124097,鄉雲里,25.005426,121.459568,NWT124097,0,
NWT124123,東宇花園城,25.182192,121.438673,NWT124123,0,
NWT124124,加州社區,25.181782,121.441534,NWT124124,0,
NWT124125,城堡花園,25.181397,121.4424276,NWT124125,0,
NWT124126,摩天31,25.180868,121.443866,NWT124126,0,
NWT124127,米粉寮,25.180626,121.444605,NWT124127,0,
NWT124128,新興街,25.180358,121.4428666,NWT124128,0,
NWT124129,書香大地,25.180364,121.4416864,NWT124129,0,
NWT124130,登星豪景,25.180926,121.4407798,NWT124130,0,
NWT124131,新興國小,25.179834,121.4404942,NWT124131,0,
NWT124132,常春藤社區,25.179007,121.43887,NWT124132,0,
NWT124133,淡江中學,25.177347,121.4379098,NWT124133,0,
NWT124134,農會新興分部,25.176422,121.4384374,NWT124134,0,
NWT124135,海景園中園,25.175404,121.439259,NWT124135,0,
NWT124136,淡水新城,25.174583,121.4388526,NWT124136,0,
NWT124137,重建街口,25.1724,121.43977,NWT124137,0,
NWT124138,永樂巷口(中山市場),25.1704243596582,121.442618297947,NWT124138,0,
NWT124139,華南銀行,25.16945776,121.4443313,NWT124139,0,
NWT124140,捷運淡水站,25.167281,121.4467018,NWT124140,0,
NWT124141,捷運淡水站,25.168631,121.445482,NWT124141,0,
NWT124142,永樂巷口(中山市場),25.17060594,121.4430187,NWT124142,0,
NWT124143,重建街口,25.17277822,121.439321,NWT124143,0,
NWT124144,淡水新城,25.17433,121.4390297,NWT124144,0,
NWT124145,海景園中園,25.175529,121.439329,NWT124145,0,
NWT124146,農會新興分部,25.176495,121.4385393,NWT124146,0,
NWT124147,淡江中學,25.177405,121.438052,NWT124147,0,
NWT124148,常春藤社區,25.179125,121.439134,NWT124148,0,
NWT124149,新興國小,25.179591,121.4405397,NWT124149,0,
NWT124150,登星豪景,25.180806,121.4407557,NWT124150,0,
NWT124151,書香大地,25.180083,121.4417749,NWT124151,0,
NWT124152,新興街,25.18016,121.4427553,NWT124152,0,
NWT124154,鳳翔區,25.199545,121.430555,NWT124154,0,
NWT124156,輕軌台北海洋大學站,25.190968,121.426436,NWT124156,0,
NWT124157,輕軌濱海沙崙站,25.190349,121.431513,NWT124157,0,
NWT124158,凱德聖道院,25.189912,121.43496,NWT124158,0,
NWT124159,甜水郡社區,25.189296,121.439794,NWT124159,0,
NWT124160,中山濱海路口,25.188309,121.443985,NWT124160,0,
NWT124161,淡水行政中心,25.18691,121.444067,NWT124161,0,
NWT124162,外寮,25.184008,121.44428,NWT124162,0,
NWT124163,真善美社區,25.182892,121.4448831,NWT124163,0,
NWT124164,新市一路,25.18289,121.4478764,NWT124164,0,
NWT124167,輕軌淡金北新站,25.181546,121.4514048,NWT124167,0,
NWT124168,福德宮,25.179849,121.451118,NWT124168,0,
NWT124169,台電宿舍,25.178874,121.449309,NWT124169,0,
NWT124170,正德國中,25.178458,121.447544,NWT124170,0,
NWT124171,頂好,25.177739,121.4434655,NWT124171,0,
NWT124172,北淡水,25.175626,121.441793,NWT124172,0,
NWT124173,永樂巷口(中山市場),25.17047718,121.4426772,NWT124173,0,
NWT124174,華南銀行,25.16945776,121.4443313,NWT124174,0,
NWT124175,捷運淡水站,25.167281,121.4467018,NWT124175,0,
NWT124176,捷運淡水站,25.16841,121.44588,NWT124176,0,
NWT124177,永樂巷口(中山市場),25.17060594,121.4430187,NWT124177,0,
NWT124178,北淡水,25.175635,121.44194,NWT124178,0,
NWT124179,頂好,25.177725,121.443641,NWT124179,0,
NWT124180,正德國中,25.178286,121.447419,NWT124180,0,
NWT124181,東宇花園城,25.182192,121.438673,NWT124181,0,
NWT124182,加州社區,25.181782,121.441534,NWT124182,0,
NWT124183,城堡花園,25.181397,121.4424276,NWT124183,0,
NWT124184,摩天31,25.180868,121.443866,NWT124184,0,
NWT124185,米粉寮,25.180626,121.444605,NWT124185,0,
NWT124186,水碓子,25.178799,121.444271,NWT124186,0,
NWT124187,頂好,25.177739,121.4434655,NWT124187,0,
NWT124188,北淡水,25.175626,121.441793,NWT124188,0,
NWT124189,永樂巷口(中山市場),25.17047718,121.4426772,NWT124189,0,
NWT124190,華南銀行,25.16945776,121.4443313,NWT124190,0,
NWT124191,捷運淡水站,25.167281,121.4467018,NWT124191,0,
NWT124192,捷運淡水站,25.168631,121.445482,NWT124192,0,
NWT124193,永樂巷口(中山市場),25.17060594,121.4430187,NWT124193,0,
NWT124194,北淡水,25.175635,121.44194,NWT124194,0,
NWT124195,頂好,25.177725,121.443641,NWT124195,0,
NWT124196,水碓子,25.178593,121.444377,NWT124196,0,
NWT124197,米粉寮,25.180451,121.4447595,NWT124197,0,
NWT124198,摩天31,25.181216,121.4431515,NWT124198,0,
NWT124199,加州社區,25.181942,121.441427,NWT124199,0,
NWT124200,東宇花園城,25.182381,121.4386875,NWT124200,0,
NWT124229,圳福里,25.000126,121.43087,NWT124229,0,
NWT124380,西盛,25.01986167,121.4337502,NWT124380,0,
NWT124381,西盛館,25.01294458,121.4327276,NWT124381,0,
NWT124384,正豐,25.007876,121.432929,NWT124384,0,
NWT124385,家麒新天地,25.010704,121.432794,NWT124385,0,
NWT124953,德光路口,25.004529,121.471153,NWT124953,0,
NWT124954,德光路口,25.004455,121.471385,NWT124954,0,
NWT125057,莒光路口,25.03176,121.50051,NWT125057,0,
NWT12621,捷運頭前庄站,25.03991225,121.4623098,NWT12621,0,
NWT12623,捷運頭前庄站,25.040058,121.462079,NWT12623,0,
NWT12625,家麒新天地,25.010087,121.432644,NWT12625,0,
NWT12627,正豐,25.007493,121.432786,NWT12627,0,
NWT12629,大唐江山,25.007867,121.431869,NWT12629,0,
NWT12631,民安西路403巷口,25.009369,121.4299139,NWT12631,0,
NWT12633,光華街口,25.01056501,121.4284024,NWT12633,0,
NWT12635,新寶社區,25.01254806,121.4263087,NWT12635,0,
NWT12637,光明里,25.01453194,121.4260504,NWT12637,0,
NWT12639,光華國小(民安西路),25.016748,121.426301,NWT12639,0,
NWT12641,光華國小(龍安路),25.018367,121.425209,NWT12641,0,
NWT12643,龍安大第,25.01933187,121.4221636,NWT12643,0,
NWT12645,萬安公園,25.01999805,121.4200836,NWT12645,0,
NWT12647,裕民國小,25.02076,121.41789,NWT12647,0,
NWT12649,丹鳳高中,25.02129417,121.416282,NWT12649,0,
NWT126496,連城中和路口,25.001978,121.498554,NWT126496,0,
NWT126497,廟美里,25.00264981,121.5003993,NWT126497,0,
NWT126498,南山高中(中山路),25.00337,121.5026,NWT126498,0,
NWT126499,佳和公園,25.00499,121.504479,NWT126499,0,
NWT126500,保生路口,25.006803,121.506749,NWT126500,0,
NWT126501,保平路口,25.005887,121.5105346,NWT126501,0,
NWT126502,永安市場(永貞路),25.003661,121.513414,NWT126502,0,
NWT126503,永和國小(永貞路),25.0041,121.5163,NWT126503,0,
NWT126504,福和國中,25.0031337977071,121.521553502861,NWT126504,0,
NWT126505,福和橋(永元路),25.002882,121.522833,NWT126505,0,
NWT126506,公館,25.0120963546845,121.538530831111,NWT126506,0,
NWT126507,臺灣科技大學,25.0134530703612,121.540148830658,NWT126507,0,
NWT126508,臺大癌醫(基隆路),25.01552112,121.5425256,NWT126508,0,
NWT126509,基隆長興街口,25.0174253459055,121.5448494574872,NWT126509,0,
NWT12651,中正龍安路口,25.022436,121.41471,NWT12651,0,
NWT126510,和平高中,25.01963,121.54746,NWT126510,0,
NWT126511,敦化和平路口,25.02391,121.54898,NWT126511,0,
NWT126512,成功國宅,25.02759922,121.5490337,NWT126512,0,
NWT126513,大安國中,25.03061531,121.5489397,NWT126513,0,
NWT126514,信義敦化路口,25.03196,121.54906,NWT126514,0,
NWT126515,仁愛國中,25.03595107173425,121.5490897913242,NWT126515,0,
NWT126516,安和敦化路口,25.03976179,121.5489579,NWT126516,0,
NWT126517,捷運忠孝敦化站,25.0430127,121.549174,NWT126517,0,
NWT126518,市民大道口,25.04575795,121.5491941,NWT126518,0,
NWT126519,市立體育場,25.048949,121.549204,NWT126519,0,
NWT126520,臺北小巨蛋,25.05258,121.54933,NWT126520,0,
NWT126521,長庚醫院,25.05656,121.54929,NWT126521,0,
NWT126522,富錦街口,25.0596,121.55006,NWT126522,0,
NWT126523,松山機場,25.06321,121.551784,NWT126523,0,
NWT126524,民生敦化路口,25.057956,121.548902,NWT126524,0,
NWT126525,長春敦化路口,25.05458,121.54883,NWT126525,0,
NWT126526,臺北小巨蛋,25.052139,121.548768,NWT126526,0,
NWT126527,八德敦化路口,25.04864,121.54874,NWT126527,0,
NWT126528,市民敦化路口,25.04527113,121.548797,NWT126528,0,
NWT126529,忠孝敦化路口,25.04186596,121.5487541,NWT126529,0,
NWT12653,丹鳳國小,25.0233425,121.41477,NWT12653,0,
NWT126530,仁愛敦化路口,25.039043,121.548697,NWT126530,0,
NWT126531,信義敦化路口,25.033775,121.548726,NWT126531,0,
NWT126532,大安國中,25.03207451,121.5483934,NWT126532,0,
NWT126533,成功國宅,25.0284111,121.5484575,NWT126533,0,
NWT126534,鳳雛公園,25.02633182,121.5486689,NWT126534,0,
NWT126535,敦化和平路口,25.02391,121.54858,NWT126535,0,
NWT126536,和平高中,25.02024,121.54763,NWT126536,0,
NWT126537,基隆長興街口,25.01851242321545,121.5456371524934,NWT126537,0,
NWT126538,臺大癌醫(基隆路),25.01571376,121.5422472,NWT126538,0,
NWT126539,臺灣科技大學,25.01415156,121.540464,NWT126539,0,
NWT126540,公館,25.0121089588721,121.538069443257,NWT126540,0,
NWT126541,福和橋(林森路),25.003877,121.523431,NWT126541,0,
NWT126542,福和國中,25.0033491522373,121.52146366371,NWT126542,0,
NWT126543,永和國小(永貞路),25.004236,121.516066,NWT126543,0,
NWT126544,永安市場(永貞路),25.00417,121.51284,NWT126544,0,
NWT126545,保平路口,25.005904,121.510771,NWT126545,0,
NWT126546,保生路口,25.006740270571,121.50639288518,NWT126546,0,
NWT126547,佳和公園,25.004997,121.504269,NWT126547,0,
NWT126548,南山高中(中山路),25.00349205,121.5024348,NWT126548,0,
NWT126549,廟美里,25.0028038820612,121.500513343799,NWT126549,0,
NWT12655,雙鳳富國路口,25.025833,121.417618,NWT12655,0,
NWT126550,連城中和路口,25.002187,121.498749,NWT126550,0,
NWT12657,捷運丹鳳站,25.028741,121.422375,NWT12657,0,
NWT12659,三洋,25.03016,121.42685,NWT12659,0,
NWT12661,營盤口,25.031553,121.431382,NWT12661,0,
NWT12663,捷運輔大站,25.032612,121.435466,NWT12663,0,
NWT12665,盲人重建院,25.033904,121.442607,NWT12665,0,
NWT12667,海山里,25.034382,121.44483,NWT12667,0,
NWT12669,新泰路口,25.034987,121.447739,NWT12669,0,
NWT12671,捷運新莊站(新莊郵局),25.035376,121.449469,NWT12671,0,
NWT12673,新莊國小,25.036727,121.456562,NWT12673,0,
NWT12675,保元宮,25.038242,121.459593,NWT12675,0,
NWT12677,頭前,25.041731,121.46516,NWT12677,0,
NWT12679,金陵女中,25.0427471,121.4665635,NWT12679,0,
NWT12681,中興街口,25.045403,121.469408,NWT12681,0,
NWT12683,五谷王廟,25.047009,121.473986,NWT12683,0,
NWT12685,重新大橋,25.05142477,121.4876744,NWT12685,0,
NWT12689,祖師廟(貴陽),25.0399728811606,121.502490233032,NWT12689,0,
NWT12691,貴陽街,25.03944952637,121.50582384788,NWT12691,0,
NWT12693,捷運西門站,25.0409980900087,121.508187414094,NWT12693,0,
NWT12695,寶慶路,25.0414915346214,121.509834083745,NWT12695,0,
NWT12697,衡陽路,25.04227,121.51021,NWT12697,0,
NWT12699,西門市場(成都),25.042689544956,121.50665358531,NWT12699,0,
NWT12701,西門國小,25.043299072488,121.50400338161,NWT12701,0,
NWT12703,重新大橋,25.05174,121.487734,NWT12703,0,
NWT12705,五谷王廟,25.04728267,121.4740976,NWT12705,0,
NWT12707,中興街口,25.044972,121.468523,NWT12707,0,
NWT12709,金陵女中,25.043117,121.466676,NWT12709,0,
NWT12711,頭前,25.041063159,121.4636349,NWT12711,0,
NWT12713,大眾廟,25.03714826,121.4573883,NWT12713,0,
NWT12715,捷運新莊站(新莊郵局),25.035639,121.449807,NWT12715,0,
NWT12717,新泰路口,25.035329,121.44814,NWT12717,0,
NWT12719,海山里,25.034808,121.445934,NWT12719,0,
NWT12721,盲人重建院,25.03371663,121.440623,NWT12721,0,
NWT12723,捷運輔大站,25.03275227,121.4347821,NWT12723,0,
NWT12725,營盤口,25.031456,121.43029,NWT12725,0,
NWT12727,三洋,25.030319,121.426759,NWT12727,0,
NWT12729,捷運丹鳳站,25.028858,121.422143,NWT12729,0,
NWT12731,雙鳳富國路口,25.025761,121.417289,NWT12731,0,
NWT12733,丹鳳國小,25.024242,121.415911,NWT12733,0,
NWT12735,中正龍安路口,25.022354,121.414626,NWT12735,0,
NWT12737,丹鳳高中,25.0212,121.41633,NWT12737,0,
NWT12739,裕民國小,25.02065,121.41789,NWT12739,0,
NWT12741,萬安公園,25.0199,121.42012,NWT12741,0,
NWT127412,捷運府中站(府中路),25.009036,121.458454,NWT127412,0,
NWT127413,萬坪公園,25.013298,121.460871,NWT127413,0,
NWT127414,板橋車站(文化路),25.015838,121.462964,NWT127414,0,
NWT127415,中山國中,25.018614,121.465129,NWT127415,0,
NWT127416,致理科技大學,25.02096,121.46695,NWT127416,0,
NWT127417,板橋花市,25.021831,121.468393,NWT127417,0,
NWT12743,龍安大第,25.01929167,121.4222103,NWT12743,0,
NWT127436,僑中一街,25.011585,121.447012,NWT127436,0,
NWT127437,大觀路一段28巷,25.00938284,121.4497662,NWT127437,0,
NWT127438,天主堂,25.009177,121.453131,NWT127438,0,
NWT127439,湳興里,25.01305,121.4519117,NWT127439,0,
NWT127440,南雅西路,25.01563,121.452629,NWT127440,0,
NWT127441,大仁街,25.01618,121.4540726,NWT127441,0,
NWT127442,大庭新村(國光路),25.017299,121.45689,NWT127442,0,
NWT127443,國光路,25.0178,121.458506,NWT127443,0,
NWT127444,漢生郵局,25.018478,121.4618884,NWT127444,0,
NWT127445,中山國中,25.018614,121.465129,NWT127445,0,
NWT127446,致理科技大學,25.02096,121.46695,NWT127446,0,
NWT127447,板橋花市,25.021691,121.469272,NWT127447,0,
NWT127448,捷運新埔站,25.023861,121.467161,NWT127448,0,
NWT127449,致理科技大學,25.020964,121.466622,NWT127449,0,
NWT12745,光華國小(龍安路),25.017972,121.42593,NWT12745,0,
NWT127450,中山國中,25.019,121.465,NWT127450,0,
NWT127451,漢生郵局,25.018634,121.4618048,NWT127451,0,
NWT127452,國光路,25.018006,121.4590129,NWT127452,0,
NWT127453,大庭新村(國光路),25.017498,121.456807,NWT127453,0,
NWT127454,大仁街,25.016282,121.4539692,NWT127454,0,
NWT127455,南雅西路,25.015503,121.452103,NWT127455,0,
NWT127456,湳興里,25.012825,121.4518363,NWT127456,0,
NWT127457,天主堂,25.009163,121.4529603,NWT127457,0,
NWT127458,大觀路一段28巷,25.00960549,121.4499902,NWT127458,0,
NWT127459,僑中一街,25.01173762,121.4471728,NWT127459,0,
NWT127460,五福新村,25.027716,121.482761,NWT127460,0,
NWT127461,冷凍廠(懷德),25.030025,121.479456,NWT127461,0,
NWT127462,懷德街(懷德),25.03143554,121.478429,NWT127462,0,
NWT127463,江子翠,25.032535,121.476953,NWT127463,0,
NWT127464,江翠國小,25.032472,121.475313,NWT127464,0,
NWT127465,捷運江子翠站,25.030537,121.472668,NWT127465,0,
NWT127466,江翠國中,25.02821,121.470732,NWT127466,0,
NWT127467,捷運新埔站(文化路),25.02486,121.46897,NWT127467,0,
NWT127468,板橋花市,25.021831,121.468393,NWT127468,0,
NWT127469,民生路橋,25.017445,121.471608,NWT127469,0,
NWT12747,光華國小(民安西路),25.01724,121.42625,NWT12747,0,
NWT127470,西安里,25.015119,121.47229,NWT127470,0,
NWT127471,中山漢生路口,25.014023,121.470005,NWT127471,0,
NWT127472,漢生路,25.012348,121.469082,NWT127472,0,
NWT127473,海山高中,25.010734,121.47013,NWT127473,0,
NWT127474,海山國小,25.00862512,121.4714132,NWT127474,0,
NWT127475,瑞穗里,25.00672218,121.4722542,NWT127475,0,
NWT127476,莒光路口,25.005926,121.471823,NWT127476,0,
NWT127477,莒光路,25.0032,121.4721813,NWT127477,0,
NWT127478,國光派出所,25.00043,121.4725926,NWT127478,0,
NWT12749,光明里,25.01439,121.4258116,NWT12749,0,
NWT12751,新寶社區,25.01268166,121.4260776,NWT12751,0,
NWT127514,國光派出所,25.001522,121.472624,NWT127514,0,
NWT127515,莒光路,25.003205,121.472377,NWT127515,0,
NWT127516,莒光路口,25.00573,121.47206,NWT127516,0,
NWT127517,瑞穗里,25.00693083,121.4723534,NWT127517,0,
NWT127518,海山高中,25.009636,121.47106,NWT127518,0,
NWT127519,漢生路,25.012472,121.469318,NWT127519,0,
NWT127520,中山漢生路口,25.014029,121.470442,NWT127520,0,
NWT127521,西安里,25.01497569,121.4724073,NWT127521,0,
NWT127522,民生中山路口,25.01501499,121.4740357,NWT127522,0,
NWT127523,玉光里,25.01663,121.47289,NWT127523,0,
NWT127524,民生路橋,25.01795,121.47202,NWT127524,0,
NWT127525,板橋花市,25.021691,121.469272,NWT127525,0,
NWT127526,捷運新埔站(文化路),25.02419,121.46891,NWT127526,0,
NWT127527,新北市議會,25.027135,121.470516,NWT127527,0,
NWT127528,江翠國中,25.028965,121.471658,NWT127528,0,
NWT127529,捷運江子翠站,25.03116,121.47362,NWT127529,0,
NWT12753,光華街口,25.010583,121.428101,NWT12753,0,
NWT127530,江翠國小,25.032101,121.475567,NWT127530,0,
NWT127531,懷德街(文聖),25.03015,121.47731,NWT127531,0,
NWT127532,冷凍廠(文聖),25.028079,121.478431,NWT127532,0,
